{"type": "FeatureCollection", "features": [{"type": "Feature", "geometry": {"type": "Point", "coordinates": [-79.260939, 43.714379]}, "properties": {"stop_name": "Danforth Rd at Kennedy Rd", "wheelchair_boarding": "1"}}, {"type": "Feature", "geometry": {"type": "Point", "coordinates": [-79.399659, 43.674448]}, "properties": {"stop_name": "Davenport Rd at Bedford Rd", "wheelchair_boarding": "1"}}, {"type": "Feature", "geometry": {"type": "Point", "coordinates": [-79.401938, 43.675511]}, "properties": {"stop_name": "Davenport Rd at Dupont St", "wheelchair_boarding": "2"}}, {"type": "Feature", "geometry": {"type": "Point", "coordinates": [-79.378112, 43.702088]}, "properties": {"stop_name": "Davisville Ave at Cleveland St", "wheelchair_boarding": "1"}}, {"type": "Feature", "geometry": {"type": "Point", "coordinates": [-79.594843, 43.701362]}, "properties": {"stop_name": "Disco Rd at Attwell Dr", "wheelchair_boarding": "1"}}, {"type": "Feature", "geometry": {"type": "Point", "coordinates": [-79.595806, 43.701043]}, "properties": {"stop_name": "Disco Rd at Attwell Dr", "wheelchair_boarding": "1"}}, {"type": "Feature", "geometry": {"type": "Point", "coordinates": [-79.600769, 43.69981]}, "properties": {"stop_name": "Disco Rd at Carlingview Dr East Side", "wheelchair_boarding": "1"}}, {"type": "Feature", "geometry": {"type": "Point", "coordinates": [-79.601176, 43.699929]}, "properties": {"stop_name": "Disco Rd at Carlingview Dr", "wheelchair_boarding": "1"}}, {"type": "Feature", "geometry": {"type": "Point", "coordinates": [-79.339121, 43.720674]}, "properties": {"stop_name": "Don Mills Rd at Eglinton Ave East", "wheelchair_boarding": "1"}}, {"type": "Feature", "geometry": {"type": "Point", "coordinates": [-79.343442, 43.736625]}, "properties": {"stop_name": "Don Mills Rd at Lawrence Ave East South Side", "wheelchair_boarding": "1"}}, {"type": "Feature", "geometry": {"type": "Point", "coordinates": [-79.348163, 43.777291]}, "properties": {"stop_name": "Don Mills Rd at Leith Hill Rd", "wheelchair_boarding": "1"}}, {"type": "Feature", "geometry": {"type": "Point", "coordinates": [-79.360513, 43.81104]}, "properties": {"stop_name": "Don Mills Rd at Steeles Ave East", "wheelchair_boarding": "1"}}, {"type": "Feature", "geometry": {"type": "Point", "coordinates": [-79.352783, 43.787246]}, "properties": {"stop_name": "Don Mills Rd at Van Horne Ave", "wheelchair_boarding": "1"}}, {"type": "Feature", "geometry": {"type": "Point", "coordinates": [-79.339326, 43.722851]}, "properties": {"stop_name": "Don Mills Rd at Wynford Dr", "wheelchair_boarding": "1"}}, {"type": "Feature", "geometry": {"type": "Point", "coordinates": [-79.303796, 43.691659]}, "properties": {"stop_name": "Doncaster Ave at Main St West Side", "wheelchair_boarding": "1"}}, {"type": "Feature", "geometry": {"type": "Point", "coordinates": [-79.303525, 43.691607]}, "properties": {"stop_name": "Doncaster Ave at Main St", "wheelchair_boarding": "1"}}, {"type": "Feature", "geometry": {"type": "Point", "coordinates": [-79.303103, 43.691816]}, "properties": {"stop_name": "Doncaster Ave at Main St", "wheelchair_boarding": "1"}}, {"type": "Feature", "geometry": {"type": "Point", "coordinates": [-79.431676, 43.78388]}, "properties": {"stop_name": "Drewry Ave at Gardenia Crt", "wheelchair_boarding": "1"}}, {"type": "Feature", "geometry": {"type": "Point", "coordinates": [-79.433593, 43.783607]}, "properties": {"stop_name": "Drewry Ave at Grantbrook St", "wheelchair_boarding": "1"}}, {"type": "Feature", "geometry": {"type": "Point", "coordinates": [-79.457356, 43.726531]}, "properties": {"stop_name": "Dufferin St at Yorkdale Rd", "wheelchair_boarding": "1"}}, {"type": "Feature", "geometry": {"type": "Point", "coordinates": [-79.425646, 43.634831]}, "properties": {"stop_name": "Dufferin St at Springhurst Ave", "wheelchair_boarding": "1"}}, {"type": "Feature", "geometry": {"type": "Point", "coordinates": [-79.456993, 43.725083]}, "properties": {"stop_name": "Dufferin St at Jane Osler Blvd - Yorkdale Shopping Centre", "wheelchair_boarding": "1"}}, {"type": "Feature", "geometry": {"type": "Point", "coordinates": [-79.434031, 43.655795]}, "properties": {"stop_name": "Dufferin Mall", "wheelchair_boarding": "1"}}, {"type": "Feature", "geometry": {"type": "Point", "coordinates": [-79.452572, 43.656442]}, "properties": {"stop_name": "Dundas St West at Bloor St West", "wheelchair_boarding": "2"}}, {"type": "Feature", "geometry": {"type": "Point", "coordinates": [-79.490433, 43.665583]}, "properties": {"stop_name": "Dundas St West at Jane St East Side", "wheelchair_boarding": "2"}}, {"type": "Feature", "geometry": {"type": "Point", "coordinates": [-79.492146, 43.66578]}, "properties": {"stop_name": "Dundas St West at Jane St West Side", "wheelchair_boarding": "2"}}, {"type": "Feature", "geometry": {"type": "Point", "coordinates": [-79.482921, 43.66565]}, "properties": {"stop_name": "Dundas St West at Runnymede Rd West Side", "wheelchair_boarding": "1"}}, {"type": "Feature", "geometry": {"type": "Point", "coordinates": [-79.453253, 43.656768]}, "properties": {"stop_name": "Dundas St West at Dundas West Outer Platform", "wheelchair_boarding": "2"}}, {"type": "Feature", "geometry": {"type": "Point", "coordinates": [-79.400108, 43.70623]}, "properties": {"stop_name": "Duplex Ave at Eglinton Ave West", "wheelchair_boarding": "2"}}, {"type": "Feature", "geometry": {"type": "Point", "coordinates": [-79.347132, 43.705908]}, "properties": {"stop_name": "East York Town Centre", "wheelchair_boarding": "2"}}, {"type": "Feature", "geometry": {"type": "Point", "coordinates": [-79.312738, 43.666788]}, "properties": {"stop_name": "Eastern Ave at Queen St East South Side", "wheelchair_boarding": "1"}}, {"type": "Feature", "geometry": {"type": "Point", "coordinates": [-79.312475, 43.667037]}, "properties": {"stop_name": "Eastern Ave at Queen St East", "wheelchair_boarding": "1"}}, {"type": "Feature", "geometry": {"type": "Point", "coordinates": [-79.453027, 43.657134]}, "properties": {"stop_name": "Edna Ave at Dundas St West", "wheelchair_boarding": "1"}}, {"type": "Feature", "geometry": {"type": "Point", "coordinates": [-79.248799, 43.736674]}, "properties": {"stop_name": "Eglinton Ave East at Brimley Rd West Side", "wheelchair_boarding": "1"}}, {"type": "Feature", "geometry": {"type": "Point", "coordinates": [-79.267117, 43.732292]}, "properties": {"stop_name": "Eglinton Ave East at Kennedy Station", "wheelchair_boarding": "1"}}, {"type": "Feature", "geometry": {"type": "Point", "coordinates": [-79.219635, 43.743168]}, "properties": {"stop_name": "Eglinton Ave East at Markham Rd West Side", "wheelchair_boarding": "1"}}, {"type": "Feature", "geometry": {"type": "Point", "coordinates": [-79.258911, 43.734493]}, "properties": {"stop_name": "Eglinton Ave East at Midland Ave West Side", "wheelchair_boarding": "1"}}, {"type": "Feature", "geometry": {"type": "Point", "coordinates": [-79.407957, 43.704641]}, "properties": {"stop_name": "Eglinton Ave West at Avenue Rd East Side", "wheelchair_boarding": "1"}}, {"type": "Feature", "geometry": {"type": "Point", "coordinates": [-79.436704, 43.698565]}, "properties": {"stop_name": "Eglinton Ave West at Everden Rd - Cedarvale Station", "wheelchair_boarding": "1"}}, {"type": "Feature", "geometry": {"type": "Point", "coordinates": [-79.435955, 43.698853]}, "properties": {"stop_name": "Eglinton Ave West at Everden Rd - Cedarvale Station", "wheelchair_boarding": "1"}}, {"type": "Feature", "geometry": {"type": "Point", "coordinates": [-79.432546, 43.699564]}, "properties": {"stop_name": "Eglinton Ave West at Glenarden Rd", "wheelchair_boarding": "1"}}, {"type": "Feature", "geometry": {"type": "Point", "coordinates": [-79.498076, 43.68452]}, "properties": {"stop_name": "Eglinton Ave West at Jane St East Side", "wheelchair_boarding": "1"}}, {"type": "Feature", "geometry": {"type": "Point", "coordinates": [-79.439204, 43.698127]}, "properties": {"stop_name": "Eglinton Ave West at Marlee Ave", "wheelchair_boarding": "1"}}, {"type": "Feature", "geometry": {"type": "Point", "coordinates": [-79.438962, 43.698177]}, "properties": {"stop_name": "Eglinton Ave West at Marlee Ave", "wheelchair_boarding": "1"}}, {"type": "Feature", "geometry": {"type": "Point", "coordinates": [-79.442946, 43.697197]}, "properties": {"stop_name": "Eglinton Ave West at Oakwood Ave", "wheelchair_boarding": "1"}}, {"type": "Feature", "geometry": {"type": "Point", "coordinates": [-79.489925, 43.68671]}, "properties": {"stop_name": "Eglinton Ave West at Weston Rd", "wheelchair_boarding": "1"}}, {"type": "Feature", "geometry": {"type": "Point", "coordinates": [-79.489369, 43.687153]}, "properties": {"stop_name": "Eglinton Ave West at Weston Rd", "wheelchair_boarding": "1"}}, {"type": "Feature", "geometry": {"type": "Point", "coordinates": [-79.398957, 43.706695]}, "properties": {"stop_name": "Eglinton Ave West at Yonge St West Side", "wheelchair_boarding": "1"}}, {"type": "Feature", "geometry": {"type": "Point", "coordinates": [-79.507259, 43.602795]}, "properties": {"stop_name": "Eighth St at Birmingham St", "wheelchair_boarding": "2"}}, {"type": "Feature", "geometry": {"type": "Point", "coordinates": [-79.506431, 43.60078]}, "properties": {"stop_name": "Eighth St at Lake Shore Blvd West North Side", "wheelchair_boarding": "1"}}, {"type": "Feature", "geometry": {"type": "Point", "coordinates": [-79.185159, 43.787289]}, "properties": {"stop_name": "Ellesmere Rd at Mirrow Crt", "wheelchair_boarding": "2"}}, {"type": "Feature", "geometry": {"type": "Point", "coordinates": [-79.273102, 43.767379]}, "properties": {"stop_name": "Ellesmere Rd at East Service Rd", "wheelchair_boarding": "2"}}, {"type": "Feature", "geometry": {"type": "Point", "coordinates": [-79.272603, 43.767743]}, "properties": {"stop_name": "Ellesmere Rd at East Service Rd", "wheelchair_boarding": "1"}}, {"type": "Feature", "geometry": {"type": "Point", "coordinates": [-79.25047, 43.77225]}, "properties": {"stop_name": "Ellesmere Rd at McCowan Rd East Side", "wheelchair_boarding": "1"}}, {"type": "Feature", "geometry": {"type": "Point", "coordinates": [-79.310443, 43.758847]}, "properties": {"stop_name": "Ellesmere Rd at Pharmacy Ave", "wheelchair_boarding": "1"}}, {"type": "Feature", "geometry": {"type": "Point", "coordinates": [-79.31474, 43.758123]}, "properties": {"stop_name": "Ellesmere Rd at Victoria Park Ave", "wheelchair_boarding": "1"}}, {"type": "Feature", "geometry": {"type": "Point", "coordinates": [-79.278977, 43.766111]}, "properties": {"stop_name": "Ellesmere Rd at West Service Rd East Side", "wheelchair_boarding": "2"}}, {"type": "Feature", "geometry": {"type": "Point", "coordinates": [-79.278682, 43.766455]}, "properties": {"stop_name": "Ellesmere Rd at West Service Rd", "wheelchair_boarding": "2"}}, {"type": "Feature", "geometry": {"type": "Point", "coordinates": [-79.370453, 43.648249]}, "properties": {"stop_name": "The Esplanade at Lower Jarvis St East Side", "wheelchair_boarding": "1"}}, {"type": "Feature", "geometry": {"type": "Point", "coordinates": [-79.549007, 43.610792]}, "properties": {"stop_name": "Evans Ave at Brown's Line", "wheelchair_boarding": "2"}}, {"type": "Feature", "geometry": {"type": "Point", "coordinates": [-79.58687, 43.691554]}, "properties": {"stop_name": "Farnboro Rd at Attwell Dr East Side", "wheelchair_boarding": "1"}}, {"type": "Feature", "geometry": {"type": "Point", "coordinates": [-79.228536, 43.816209]}, "properties": {"stop_name": "Finch Ave East at Neilson Rd West Side", "wheelchair_boarding": "1"}}, {"type": "Feature", "geometry": {"type": "Point", "coordinates": [-79.414782, 43.779842]}, "properties": {"stop_name": "Finch Ave East at Yonge St East Side", "wheelchair_boarding": "1"}}, {"type": "Feature", "geometry": {"type": "Point", "coordinates": [-79.647762, 43.707577]}, "properties": {"stop_name": "Airport Rd at Beverley St", "wheelchair_boarding": "2"}}, {"type": "Feature", "geometry": {"type": "Point", "coordinates": [-79.609114, 43.685989]}, "properties": {"stop_name": "Airport Rd at Bresler Dr West Side", "wheelchair_boarding": "2"}}, {"type": "Feature", "geometry": {"type": "Point", "coordinates": [-79.606403, 43.686085]}, "properties": {"stop_name": "Airport Rd at Bresler Dr", "wheelchair_boarding": "2"}}, {"type": "Feature", "geometry": {"type": "Point", "coordinates": [-79.647215, 43.707589]}, "properties": {"stop_name": "Airport Rd at Victory Cres", "wheelchair_boarding": "2"}}, {"type": "Feature", "geometry": {"type": "Point", "coordinates": [-79.550293, 43.725042]}, "properties": {"stop_name": "Albion Rd at Elmhurst Dr", "wheelchair_boarding": "1"}}, {"type": "Feature", "geometry": {"type": "Point", "coordinates": [-79.621692, 43.746942]}, "properties": {"stop_name": "Albion Rd at Humberline Dr", "wheelchair_boarding": "1"}}, {"type": "Feature", "geometry": {"type": "Point", "coordinates": [-79.565054, 43.737291]}, "properties": {"stop_name": "Albion Rd at Islington Ave", "wheelchair_boarding": "2"}}, {"type": "Feature", "geometry": {"type": "Point", "coordinates": [-79.593272, 43.698444]}, "properties": {"stop_name": "Attwell Dr at Belfield Rd North Side", "wheelchair_boarding": "1"}}, {"type": "Feature", "geometry": {"type": "Point", "coordinates": [-79.594894, 43.701039]}, "properties": {"stop_name": "Attwell Dr at Disco Rd", "wheelchair_boarding": "1"}}, {"type": "Feature", "geometry": {"type": "Point", "coordinates": [-79.589518, 43.695237]}, "properties": {"stop_name": "Attwell Dr at Marmac Dr South Side", "wheelchair_boarding": "1"}}, {"type": "Feature", "geometry": {"type": "Point", "coordinates": [-79.588761, 43.693656]}, "properties": {"stop_name": "Attwell Dr at McLachlan Dr", "wheelchair_boarding": "1"}}, {"type": "Feature", "geometry": {"type": "Point", "coordinates": [-79.539233, 43.638954]}, "properties": {"stop_name": "Aukland Rd at Dundas St West", "wheelchair_boarding": "2"}}, {"type": "Feature", "geometry": {"type": "Point", "coordinates": [-79.419461, 43.731855]}, "properties": {"stop_name": "Avenue Rd at Old Orchard Grove", "wheelchair_boarding": "1"}}, {"type": "Feature", "geometry": {"type": "Point", "coordinates": [-79.430488, 43.721937]}, "properties": {"stop_name": "3174 Bathurst St", "wheelchair_boarding": "1"}}, {"type": "Feature", "geometry": {"type": "Point", "coordinates": [-79.426541, 43.705395]}, "properties": {"stop_name": "Bathurst St at Elm Ridge Dr", "wheelchair_boarding": "1"}}, {"type": "Feature", "geometry": {"type": "Point", "coordinates": [-79.427979, 43.71225]}, "properties": {"stop_name": "Bathurst St at Glencairn Ave", "wheelchair_boarding": "1"}}, {"type": "Feature", "geometry": {"type": "Point", "coordinates": [-79.418455, 43.683275]}, "properties": {"stop_name": "Bathurst St at St Clair Ave West", "wheelchair_boarding": "1"}}, {"type": "Feature", "geometry": {"type": "Point", "coordinates": [-79.445475, 43.792055]}, "properties": {"stop_name": "Bathurst St at Steeles Ave West", "wheelchair_boarding": "1"}}, {"type": "Feature", "geometry": {"type": "Point", "coordinates": [-79.434176, 43.729774]}, "properties": {"stop_name": "Baycrest Home For Aged", "wheelchair_boarding": "2"}}, {"type": "Feature", "geometry": {"type": "Point", "coordinates": [-79.439941, 43.729171]}, "properties": {"stop_name": "Wagman Centre", "wheelchair_boarding": "2"}}, {"type": "Feature", "geometry": {"type": "Point", "coordinates": [-79.379437, 43.724229]}, "properties": {"stop_name": "Bayview Ave at Valleyanna Dr", "wheelchair_boarding": "1"}}, {"type": "Feature", "geometry": {"type": "Point", "coordinates": [-79.588836, 43.698945]}, "properties": {"stop_name": "Belfield Rd at Brockport Dr West Side", "wheelchair_boarding": "1"}}, {"type": "Feature", "geometry": {"type": "Point", "coordinates": [-79.589609, 43.698544]}, "properties": {"stop_name": "Belfield Rd at Brockport Dr", "wheelchair_boarding": "1"}}, {"type": "Feature", "geometry": {"type": "Point", "coordinates": [-79.494083, 43.635915]}, "properties": {"stop_name": "Berry Rd at Park Lawn Rd", "wheelchair_boarding": "1"}}, {"type": "Feature", "geometry": {"type": "Point", "coordinates": [-79.306217, 43.799148]}, "properties": {"stop_name": "Birchmount Rd at Finch Ave East", "wheelchair_boarding": "1"}}, {"type": "Feature", "geometry": {"type": "Point", "coordinates": [-79.265226, 43.69976]}, "properties": {"stop_name": "Birchmount Rd at Highview Ave South Side", "wheelchair_boarding": "1"}}, {"type": "Feature", "geometry": {"type": "Point", "coordinates": [-79.264956, 43.699574]}, "properties": {"stop_name": "Birchmount Rd at Highview Ave", "wheelchair_boarding": "1"}}, {"type": "Feature", "geometry": {"type": "Point", "coordinates": [-79.316825, 43.820861]}, "properties": {"stop_name": "Birchmount Rd at Steeles Ave South Side", "wheelchair_boarding": "1"}}, {"type": "Feature", "geometry": {"type": "Point", "coordinates": [-79.524265, 43.64451]}, "properties": {"stop_name": "Bloor St West at Islington Ave West Side", "wheelchair_boarding": "1"}}, {"type": "Feature", "geometry": {"type": "Point", "coordinates": [-79.52317, 43.644845]}, "properties": {"stop_name": "Bloor St West at Islington Ave", "wheelchair_boarding": "1"}}, {"type": "Feature", "geometry": {"type": "Point", "coordinates": [-79.484624, 43.649118]}, "properties": {"stop_name": "Bloor St West at Jane St", "wheelchair_boarding": "1"}}, {"type": "Feature", "geometry": {"type": "Point", "coordinates": [-79.358606, 43.677373]}, "properties": {"stop_name": "Broadview Ave at Erindale Ave", "wheelchair_boarding": "1"}}, {"type": "Feature", "geometry": {"type": "Point", "coordinates": [-79.508365, 43.708692]}, "properties": {"stop_name": "Church St at Uphill Ave", "wheelchair_boarding": "1"}}, {"type": "Feature", "geometry": {"type": "Point", "coordinates": [-79.326731, 43.690745]}, "properties": {"stop_name": "Coxwell Ave at Mortimer Ave - Michael Garron Hospital", "wheelchair_boarding": "1"}}, {"type": "Feature", "geometry": {"type": "Point", "coordinates": [-79.328913, 43.696055]}, "properties": {"stop_name": "Coxwell Ave at Plains Rd", "wheelchair_boarding": "1"}}, {"type": "Feature", "geometry": {"type": "Point", "coordinates": [-79.275031, 43.694178]}, "properties": {"stop_name": "3450 Danforth Ave", "wheelchair_boarding": "1"}}, {"type": "Feature", "geometry": {"type": "Point", "coordinates": [-79.301688, 43.688277]}, "properties": {"stop_name": "Danforth Ave at Main St", "wheelchair_boarding": "1"}}, {"type": "Feature", "geometry": {"type": "Point", "coordinates": [-79.483379, 43.73283]}, "properties": {"stop_name": "Keele St at Keelegate Dr", "wheelchair_boarding": "1"}}, {"type": "Feature", "geometry": {"type": "Point", "coordinates": [-79.467341, 43.672216]}, "properties": {"stop_name": "Keele St at St Clair Ave West", "wheelchair_boarding": "1"}}, {"type": "Feature", "geometry": {"type": "Point", "coordinates": [-79.467228, 43.672009]}, "properties": {"stop_name": "Keele St at St Clair Ave West", "wheelchair_boarding": "1"}}, {"type": "Feature", "geometry": {"type": "Point", "coordinates": [-79.490202, 43.75995]}, "properties": {"stop_name": "Keele St at Toro Rd", "wheelchair_boarding": "1"}}, {"type": "Feature", "geometry": {"type": "Point", "coordinates": [-79.481969, 43.72718]}, "properties": {"stop_name": "Keele St at Wilson Ave North Side", "wheelchair_boarding": "1"}}, {"type": "Feature", "geometry": {"type": "Point", "coordinates": [-79.481998, 43.727289]}, "properties": {"stop_name": "Wilson Ave at Keele St North Side", "wheelchair_boarding": "1"}}, {"type": "Feature", "geometry": {"type": "Point", "coordinates": [-79.267673, 43.731911]}, "properties": {"stop_name": "Kennedy Rd at Eglinton Ave East", "wheelchair_boarding": "1"}}, {"type": "Feature", "geometry": {"type": "Point", "coordinates": [-79.282028, 43.769265]}, "properties": {"stop_name": "Kennedy Rd at Progress Ave", "wheelchair_boarding": "1"}}, {"type": "Feature", "geometry": {"type": "Point", "coordinates": [-79.414528, 43.641451]}, "properties": {"stop_name": "King St West at Shaw St East Side", "wheelchair_boarding": "1"}}, {"type": "Feature", "geometry": {"type": "Point", "coordinates": [-79.412095, 43.641936]}, "properties": {"stop_name": "King St West at Strachan Ave", "wheelchair_boarding": "1"}}, {"type": "Feature", "geometry": {"type": "Point", "coordinates": [-79.56316, 43.704725]}, "properties": {"stop_name": "Kipling Ave at Belfield Rd - Etobicoke North GO Station", "wheelchair_boarding": "1"}}, {"type": "Feature", "geometry": {"type": "Point", "coordinates": [-79.535426, 43.642305]}, "properties": {"stop_name": "Kipling Ave at Bloor St West North Side", "wheelchair_boarding": "1"}}, {"type": "Feature", "geometry": {"type": "Point", "coordinates": [-79.44826, 43.671144]}, "properties": {"stop_name": "Lansdowne Ave at Davenport Rd South Side", "wheelchair_boarding": "2"}}, {"type": "Feature", "geometry": {"type": "Point", "coordinates": [-79.439653, 43.649559]}, "properties": {"stop_name": "Lansdowne Ave at Dundas St West South Side", "wheelchair_boarding": "2"}}, {"type": "Feature", "geometry": {"type": "Point", "coordinates": [-79.450405, 43.676123]}, "properties": {"stop_name": "Lansdowne Ave at St Clair Ave West", "wheelchair_boarding": "1"}}, {"type": "Feature", "geometry": {"type": "Point", "coordinates": [-79.131368, 43.780829]}, "properties": {"stop_name": "Lawrence Ave East at East Ave - Rouge Hill GO Station", "wheelchair_boarding": "1"}}, {"type": "Feature", "geometry": {"type": "Point", "coordinates": [-79.205766, 43.763877]}, "properties": {"stop_name": "Lawrence Ave East at Orton Park Rd", "wheelchair_boarding": "1"}}, {"type": "Feature", "geometry": {"type": "Point", "coordinates": [-79.487529, 43.706494]}, "properties": {"stop_name": "Lawrence Ave West at Culford Rd", "wheelchair_boarding": "1"}}, {"type": "Feature", "geometry": {"type": "Point", "coordinates": [-79.522285, 43.698378]}, "properties": {"stop_name": "Lawrence Ave West at Scarlett Rd East Side", "wheelchair_boarding": "2"}}, {"type": "Feature", "geometry": {"type": "Point", "coordinates": [-79.437933, 43.717543]}, "properties": {"stop_name": "Lawrence Ave West at Varna Dr West Side", "wheelchair_boarding": "1"}}, {"type": "Feature", "geometry": {"type": "Point", "coordinates": [-79.516006, 43.700276]}, "properties": {"stop_name": "Lawrence Ave West at Weston Rd - Weston GO Station", "wheelchair_boarding": "1"}}, {"type": "Feature", "geometry": {"type": "Point", "coordinates": [-79.432586, 43.719613]}, "properties": {"stop_name": "Lawrence Plaza at Canada Trust", "wheelchair_boarding": "1"}}, {"type": "Feature", "geometry": {"type": "Point", "coordinates": [-79.448281, 43.717187]}, "properties": {"stop_name": "Lawrence Sq at Northwest Entrance", "wheelchair_boarding": "1"}}, {"type": "Feature", "geometry": {"type": "Point", "coordinates": [-79.329622, 43.661641]}, "properties": {"stop_name": "Leslie St at Eastern Ave", "wheelchair_boarding": "1"}}, {"type": "Feature", "geometry": {"type": "Point", "coordinates": [-79.36075, 43.757087]}, "properties": {"stop_name": "Leslie St at Kirkwood Rd North Side", "wheelchair_boarding": "1"}}, {"type": "Feature", "geometry": {"type": "Point", "coordinates": [-79.355687, 43.734288]}, "properties": {"stop_name": "Leslie St at Lawrence Ave East", "wheelchair_boarding": "1"}}, {"type": "Feature", "geometry": {"type": "Point", "coordinates": [-79.330047, 43.662648]}, "properties": {"stop_name": "Leslie St at Queen St East South Side", "wheelchair_boarding": "1"}}, {"type": "Feature", "geometry": {"type": "Point", "coordinates": [-79.402303, 43.690834]}, "properties": {"stop_name": "Lonsdale Rd at Avenue Rd East Side", "wheelchair_boarding": "1"}}, {"type": "Feature", "geometry": {"type": "Point", "coordinates": [-79.41471, 43.636511]}, "properties": {"stop_name": "Exhibition Loop at Manitoba Dr", "wheelchair_boarding": "2"}}, {"type": "Feature", "geometry": {"type": "Point", "coordinates": [-79.415373, 43.636331]}, "properties": {"stop_name": "Exhibition Loop", "wheelchair_boarding": "1"}}, {"type": "Feature", "geometry": {"type": "Point", "coordinates": [-79.179955, 43.819735]}, "properties": {"stop_name": "Toronto Zoo", "wheelchair_boarding": "1"}}, {"type": "Feature", "geometry": {"type": "Point", "coordinates": [-79.17988, 43.819606]}, "properties": {"stop_name": "Toronto Zoo", "wheelchair_boarding": "1"}}, {"type": "Feature", "geometry": {"type": "Point", "coordinates": [-79.130474, 43.780719]}, "properties": {"stop_name": "Rouge Hill GO Station Loop", "wheelchair_boarding": "1"}}, {"type": "Feature", "geometry": {"type": "Point", "coordinates": [-79.129822, 43.780905]}, "properties": {"stop_name": "Rouge Hill GO Station Loop", "wheelchair_boarding": "1"}}, {"type": "Feature", "geometry": {"type": "Point", "coordinates": [-79.478867, 43.631119]}, "properties": {"stop_name": "Humber Loop at The Queensway", "wheelchair_boarding": "1"}}, {"type": "Feature", "geometry": {"type": "Point", "coordinates": [-79.47873, 43.631002]}, "properties": {"stop_name": "Humber Loop at The Queensway", "wheelchair_boarding": "1"}}, {"type": "Feature", "geometry": {"type": "Point", "coordinates": [-79.5437, 43.592111]}, "properties": {"stop_name": "Long Branch Loop - Long Branch GO Station", "wheelchair_boarding": "1"}}, {"type": "Feature", "geometry": {"type": "Point", "coordinates": [-79.39184, 43.638419]}, "properties": {"stop_name": "Queens Quay Loop at Lower Spadina Ave", "wheelchair_boarding": "1"}}, {"type": "Feature", "geometry": {"type": "Point", "coordinates": [-79.640711, 43.721726]}, "properties": {"stop_name": "Westwood Square Transit Terminal", "wheelchair_boarding": "2"}}, {"type": "Feature", "geometry": {"type": "Point", "coordinates": [-79.307848, 43.694557]}, "properties": {"stop_name": "Lumsden Ave at Westlake Ave", "wheelchair_boarding": "1"}}, {"type": "Feature", "geometry": {"type": "Point", "coordinates": [-79.233259, 43.781933]}, "properties": {"stop_name": "Progress Ave at Markham Rd East Side", "wheelchair_boarding": "1"}}, {"type": "Feature", "geometry": {"type": "Point", "coordinates": [-79.432965, 43.635202]}, "properties": {"stop_name": "Toronto Rehab - Bickle Centre at 130 Dunn Ave", "wheelchair_boarding": "2"}}, {"type": "Feature", "geometry": {"type": "Point", "coordinates": [-79.312948, 43.667029]}, "properties": {"stop_name": "Queen St East at Kingston Rd", "wheelchair_boarding": "1"}}, {"type": "Feature", "geometry": {"type": "Point", "coordinates": [-79.31289, 43.667119]}, "properties": {"stop_name": "Queen St East at Kingston Rd", "wheelchair_boarding": "2"}}, {"type": "Feature", "geometry": {"type": "Point", "coordinates": [-79.416852, 43.644499]}, "properties": {"stop_name": "Queen St West at Shaw St", "wheelchair_boarding": "1"}}, {"type": "Feature", "geometry": {"type": "Point", "coordinates": [-79.393747, 43.665601]}, "properties": {"stop_name": "Queen's Park Cres West at Hoskin Ave", "wheelchair_boarding": "1"}}, {"type": "Feature", "geometry": {"type": "Point", "coordinates": [-79.391226, 43.66527]}, "properties": {"stop_name": "Queen's Park Cres East at St Joseph St North Side", "wheelchair_boarding": "1"}}, {"type": "Feature", "geometry": {"type": "Point", "coordinates": [-79.501779, 43.626433]}, "properties": {"stop_name": "The Queensway at Morgan Ave", "wheelchair_boarding": "1"}}, {"type": "Feature", "geometry": {"type": "Point", "coordinates": [-79.484019, 43.630517]}, "properties": {"stop_name": "The Queensway at Stephen Dr", "wheelchair_boarding": "2"}}, {"type": "Feature", "geometry": {"type": "Point", "coordinates": [-79.470466, 43.637314]}, "properties": {"stop_name": "The Queensway at Windermere Ave West Side", "wheelchair_boarding": "1"}}, {"type": "Feature", "geometry": {"type": "Point", "coordinates": [-79.446615, 43.658448]}, "properties": {"stop_name": "55 Rankin Cres", "wheelchair_boarding": "2"}}, {"type": "Feature", "geometry": {"type": "Point", "coordinates": [-79.546369, 43.659201]}, "properties": {"stop_name": "Rathburn Rd at Lloyd Manor Rd", "wheelchair_boarding": "1"}}, {"type": "Feature", "geometry": {"type": "Point", "coordinates": [-79.587166, 43.666096]}, "properties": {"stop_name": "Renforth Dr at Eglinton Ave West", "wheelchair_boarding": "1"}}, {"type": "Feature", "geometry": {"type": "Point", "coordinates": [-79.582965, 43.659476]}, "properties": {"stop_name": "Michael Power / St Joseph H.S.", "wheelchair_boarding": "1"}}, {"type": "Feature", "geometry": {"type": "Point", "coordinates": [-79.582873, 43.659289]}, "properties": {"stop_name": "Michael Power / St Joseph H.S.", "wheelchair_boarding": "1"}}, {"type": "Feature", "geometry": {"type": "Point", "coordinates": [-79.471323, 43.68219]}, "properties": {"stop_name": "Rogers Rd at Keele St", "wheelchair_boarding": "1"}}, {"type": "Feature", "geometry": {"type": "Point", "coordinates": [-79.533986, 43.699615]}, "properties": {"stop_name": "Royal York Rd at Dixon Rd", "wheelchair_boarding": "2"}}, {"type": "Feature", "geometry": {"type": "Point", "coordinates": [-79.500227, 43.761193]}, "properties": {"stop_name": "Sentinel Rd at Finch Ave West", "wheelchair_boarding": "1"}}, {"type": "Feature", "geometry": {"type": "Point", "coordinates": [-79.502298, 43.769916]}, "properties": {"stop_name": "Sentinel Rd at The Pond Rd", "wheelchair_boarding": "1"}}, {"type": "Feature", "geometry": {"type": "Point", "coordinates": [-79.215028, 43.807953]}, "properties": {"stop_name": "Sewells Rd at Brenyon Way East Side", "wheelchair_boarding": "1"}}, {"type": "Feature", "geometry": {"type": "Point", "coordinates": [-79.215527, 43.80792]}, "properties": {"stop_name": "Sewells Rd at Brenyon Way", "wheelchair_boarding": "1"}}, {"type": "Feature", "geometry": {"type": "Point", "coordinates": [-79.213775, 43.810308]}, "properties": {"stop_name": "Sewells Rd at McLevin Ave", "wheelchair_boarding": "2"}}, {"type": "Feature", "geometry": {"type": "Point", "coordinates": [-79.171104, 43.80818]}, "properties": {"stop_name": "Sheppard Ave East at Meadowvale Rd", "wheelchair_boarding": "2"}}, {"type": "Feature", "geometry": {"type": "Point", "coordinates": [-79.322236, 43.775286]}, "properties": {"stop_name": "Sheppard Ave East at Victoria Park Ave East Side", "wheelchair_boarding": "1"}}, {"type": "Feature", "geometry": {"type": "Point", "coordinates": [-79.512583, 43.739369]}, "properties": {"stop_name": "Sheppard Ave West at Jane St East Side", "wheelchair_boarding": "2"}}, {"type": "Feature", "geometry": {"type": "Point", "coordinates": [-79.491659, 43.743786]}, "properties": {"stop_name": "Sheppard Ave West at Sentinel Rd", "wheelchair_boarding": "1"}}, {"type": "Feature", "geometry": {"type": "Point", "coordinates": [-79.463904, 43.750252]}, "properties": {"stop_name": "Sheppard Ave West at William R Allen Rd West Side", "wheelchair_boarding": "1"}}, {"type": "Feature", "geometry": {"type": "Point", "coordinates": [-79.558438, 43.609729]}, "properties": {"stop_name": "Sherway Gardens Rd at Sherway Gate (Mall)", "wheelchair_boarding": "1"}}, {"type": "Feature", "geometry": {"type": "Point", "coordinates": [-79.558228, 43.610024]}, "properties": {"stop_name": "Sherway Gardens Rd at Sherway Gate Mall West Side", "wheelchair_boarding": "1"}}, {"type": "Feature", "geometry": {"type": "Point", "coordinates": [-79.558022, 43.609785]}, "properties": {"stop_name": "Sherway Gardens Rd at Sherway Gate Mall", "wheelchair_boarding": "1"}}, {"type": "Feature", "geometry": {"type": "Point", "coordinates": [-79.557773, 43.609847]}, "properties": {"stop_name": "Sherway Gardens Rd at Sherway Gate (Mall)", "wheelchair_boarding": "1"}}, {"type": "Feature", "geometry": {"type": "Point", "coordinates": [-79.301635, 43.688037]}, "properties": {"stop_name": "Main St at Danforth Ave - Danforth GO Station", "wheelchair_boarding": "2"}}, {"type": "Feature", "geometry": {"type": "Point", "coordinates": [-79.301532, 43.687796]}, "properties": {"stop_name": "Main St at Danforth Ave - Danforth GO Station", "wheelchair_boarding": "1"}}, {"type": "Feature", "geometry": {"type": "Point", "coordinates": [-79.303255, 43.691558]}, "properties": {"stop_name": "Main St at Doncaster Ave", "wheelchair_boarding": "2"}}, {"type": "Feature", "geometry": {"type": "Point", "coordinates": [-79.300315, 43.684061]}, "properties": {"stop_name": "Main St at Gerrard St East", "wheelchair_boarding": "1"}}, {"type": "Feature", "geometry": {"type": "Point", "coordinates": [-79.300207, 43.684182]}, "properties": {"stop_name": "Main St at Gerrard St East", "wheelchair_boarding": "1"}}, {"type": "Feature", "geometry": {"type": "Point", "coordinates": [-79.250611, 43.831141]}, "properties": {"stop_name": "Markham Rd at Passmore Ave North Side", "wheelchair_boarding": "2"}}, {"type": "Feature", "geometry": {"type": "Point", "coordinates": [-79.591714, 43.737241]}, "properties": {"stop_name": "Martin Grove Rd at Finch Ave West North Side", "wheelchair_boarding": "1"}}, {"type": "Feature", "geometry": {"type": "Point", "coordinates": [-79.589166, 43.731919]}, "properties": {"stop_name": "Martin Grove Rd at John Garland Blvd", "wheelchair_boarding": "1"}}, {"type": "Feature", "geometry": {"type": "Point", "coordinates": [-79.586894, 43.726119]}, "properties": {"stop_name": "Martin Grove Rd at Mercury Rd", "wheelchair_boarding": "1"}}, {"type": "Feature", "geometry": {"type": "Point", "coordinates": [-79.586705, 43.726355]}, "properties": {"stop_name": "Westhumber Blvd at Martin Grove Rd North Side", "wheelchair_boarding": "2"}}, {"type": "Feature", "geometry": {"type": "Point", "coordinates": [-79.27602, 43.834965]}, "properties": {"stop_name": "McCowan Rd at Elson St", "wheelchair_boarding": "1"}}, {"type": "Feature", "geometry": {"type": "Point", "coordinates": [-79.2752, 43.83177]}, "properties": {"stop_name": "McCowan Rd at Steeles Ave East North Side", "wheelchair_boarding": "1"}}, {"type": "Feature", "geometry": {"type": "Point", "coordinates": [-79.275161, 43.830294]}, "properties": {"stop_name": "McCowan Rd at Steeles Ave East South Side", "wheelchair_boarding": "1"}}, {"type": "Feature", "geometry": {"type": "Point", "coordinates": [-79.335709, 43.804303]}, "properties": {"stop_name": "1020 McNicoll Ave", "wheelchair_boarding": "1"}}, {"type": "Feature", "geometry": {"type": "Point", "coordinates": [-79.306447, 43.809896]}, "properties": {"stop_name": "McNicoll Ave at Silver Springs Blvd", "wheelchair_boarding": "1"}}, {"type": "Feature", "geometry": {"type": "Point", "coordinates": [-79.306225, 43.810154]}, "properties": {"stop_name": "McNicoll Ave at Silver Springs Blvd", "wheelchair_boarding": "1"}}, {"type": "Feature", "geometry": {"type": "Point", "coordinates": [-79.336632, 43.803924]}, "properties": {"stop_name": "McNicoll Ave at Victoria Park Ave", "wheelchair_boarding": "1"}}, {"type": "Feature", "geometry": {"type": "Point", "coordinates": [-79.171055, 43.808582]}, "properties": {"stop_name": "Meadowvale Rd at Sheppard Ave East", "wheelchair_boarding": "1"}}, {"type": "Feature", "geometry": {"type": "Point", "coordinates": [-79.193257, 43.789009]}, "properties": {"stop_name": "Military Trail at Morningside Ave", "wheelchair_boarding": "1"}}, {"type": "Feature", "geometry": {"type": "Point", "coordinates": [-79.353246, 43.702117]}, "properties": {"stop_name": "Millwood Rd at Overlea Blvd North Side", "wheelchair_boarding": "1"}}, {"type": "Feature", "geometry": {"type": "Point", "coordinates": [-79.20275, 43.809256]}, "properties": {"stop_name": "Morningside Ave at Casebridge Crt North Side", "wheelchair_boarding": "1"}}, {"type": "Feature", "geometry": {"type": "Point", "coordinates": [-79.206022, 43.813037]}, "properties": {"stop_name": "Morningside Ave at John Stoner Dr South Side", "wheelchair_boarding": "1"}}, {"type": "Feature", "geometry": {"type": "Point", "coordinates": [-79.230475, 43.823402]}, "properties": {"stop_name": "Nightstar Rd at Morningside Ave North Side", "wheelchair_boarding": "1"}}, {"type": "Feature", "geometry": {"type": "Point", "coordinates": [-79.232874, 43.826549]}, "properties": {"stop_name": "2851 Morningside Ave Walkway to Raponi Cir", "wheelchair_boarding": "1"}}, {"type": "Feature", "geometry": {"type": "Point", "coordinates": [-79.643204, 43.719752]}, "properties": {"stop_name": "Morning Star Dr at Catalpa Rd", "wheelchair_boarding": "2"}}, {"type": "Feature", "geometry": {"type": "Point", "coordinates": [-79.643031, 43.720149]}, "properties": {"stop_name": "Morning Star Dr at Catalpa Rd", "wheelchair_boarding": "1"}}, {"type": "Feature", "geometry": {"type": "Point", "coordinates": [-79.649766, 43.709985]}, "properties": {"stop_name": "Morning Star Dr at Airport Rd East Side", "wheelchair_boarding": "2"}}, {"type": "Feature", "geometry": {"type": "Point", "coordinates": [-79.647418, 43.712757]}, "properties": {"stop_name": "Morning Star Dr at Lancaster Ave", "wheelchair_boarding": "2"}}, {"type": "Feature", "geometry": {"type": "Point", "coordinates": [-79.647738, 43.71257]}, "properties": {"stop_name": "Morning Star Dr at Manion Rd", "wheelchair_boarding": "2"}}, {"type": "Feature", "geometry": {"type": "Point", "coordinates": [-79.646964, 43.714132]}, "properties": {"stop_name": "Morning Star Dr at Reindeer Dr West Side", "wheelchair_boarding": "2"}}, {"type": "Feature", "geometry": {"type": "Point", "coordinates": [-79.646501, 43.714642]}, "properties": {"stop_name": "Morning Star Dr at Reindeer Dr", "wheelchair_boarding": "2"}}, {"type": "Feature", "geometry": {"type": "Point", "coordinates": [-79.327056, 43.69056]}, "properties": {"stop_name": "Mortimer Ave at Coxwell Ave West Side - Michael Garron Hospital", "wheelchair_boarding": "1"}}, {"type": "Feature", "geometry": {"type": "Point", "coordinates": [-79.3902, 43.708909]}, "properties": {"stop_name": "Mt Pleasant Rd at Eglinton Ave East North Side", "wheelchair_boarding": "1"}}, {"type": "Feature", "geometry": {"type": "Point", "coordinates": [-79.227311, 43.81544]}, "properties": {"stop_name": "Neilson Rd at Finch Ave East South Side", "wheelchair_boarding": "1"}}, {"type": "Feature", "geometry": {"type": "Point", "coordinates": [-79.227412, 43.815638]}, "properties": {"stop_name": "Neilson Rd at Finch Ave East South Side", "wheelchair_boarding": "1"}}, {"type": "Feature", "geometry": {"type": "Point", "coordinates": [-79.442725, 43.696926]}, "properties": {"stop_name": "Oakwood Ave at Eglinton Ave West South Side", "wheelchair_boarding": "1"}}, {"type": "Feature", "geometry": {"type": "Point", "coordinates": [-79.438568, 43.687031]}, "properties": {"stop_name": "Oakwood Ave at Rogers Rd", "wheelchair_boarding": "1"}}, {"type": "Feature", "geometry": {"type": "Point", "coordinates": [-79.350439, 43.693124]}, "properties": {"stop_name": "O'Connor Dr at Pape Ave", "wheelchair_boarding": "1"}}, {"type": "Feature", "geometry": {"type": "Point", "coordinates": [-79.463061, 43.673945]}, "properties": {"stop_name": "Old Weston Rd at St Clair Ave West North Side", "wheelchair_boarding": "1"}}, {"type": "Feature", "geometry": {"type": "Point", "coordinates": [-79.462852, 43.673248]}, "properties": {"stop_name": "Old Weston Rd at St Clair Ave West", "wheelchair_boarding": "1"}}, {"type": "Feature", "geometry": {"type": "Point", "coordinates": [-79.463123, 43.673628]}, "properties": {"stop_name": "Old Weston Rd at St Clair Ave West", "wheelchair_boarding": "1"}}, {"type": "Feature", "geometry": {"type": "Point", "coordinates": [-79.425454, 43.661821]}, "properties": {"stop_name": "Ossington Ave at Bloor St West", "wheelchair_boarding": "1"}}, {"type": "Feature", "geometry": {"type": "Point", "coordinates": [-79.425772, 43.662062]}, "properties": {"stop_name": "Ossington Ave at Bloor St West", "wheelchair_boarding": "1"}}, {"type": "Feature", "geometry": {"type": "Point", "coordinates": [-79.35223, 43.702452]}, "properties": {"stop_name": "Overlea Blvd at Millwood Rd East Side", "wheelchair_boarding": "2"}}, {"type": "Feature", "geometry": {"type": "Point", "coordinates": [-79.344028, 43.70725]}, "properties": {"stop_name": "Overlea Blvd at Thorncliffe Park Dr (East)", "wheelchair_boarding": "1"}}, {"type": "Feature", "geometry": {"type": "Point", "coordinates": [-79.345139, 43.679891]}, "properties": {"stop_name": "Pape Ave at Lipton Ave North Side", "wheelchair_boarding": "1"}}, {"type": "Feature", "geometry": {"type": "Point", "coordinates": [-79.350372, 43.693657]}, "properties": {"stop_name": "Pape Ave at O'Connor Dr North Side", "wheelchair_boarding": "1"}}, {"type": "Feature", "geometry": {"type": "Point", "coordinates": [-79.36772, 43.663906]}, "properties": {"stop_name": "Parliament St at Carlton St", "wheelchair_boarding": "2"}}, {"type": "Feature", "geometry": {"type": "Point", "coordinates": [-79.526633, 43.774009]}, "properties": {"stop_name": "Peter Kaiser Gate at Steeles Ave West", "wheelchair_boarding": "1"}}, {"type": "Feature", "geometry": {"type": "Point", "coordinates": [-79.310043, 43.758892]}, "properties": {"stop_name": "Pharmacy Ave at Ellesmere Rd", "wheelchair_boarding": "1"}}, {"type": "Feature", "geometry": {"type": "Point", "coordinates": [-79.13747, 43.781768]}, "properties": {"stop_name": "Port Union Rd at Adenmore Rd North Side", "wheelchair_boarding": "1"}}, {"type": "Feature", "geometry": {"type": "Point", "coordinates": [-79.467298, 43.768624]}, "properties": {"stop_name": "Finch Ave West at Dufferin St", "wheelchair_boarding": "1"}}, {"type": "Feature", "geometry": {"type": "Point", "coordinates": [-79.430344, 43.776326]}, "properties": {"stop_name": "Finch Ave West at Senlac Rd", "wheelchair_boarding": "1"}}, {"type": "Feature", "geometry": {"type": "Point", "coordinates": [-79.460827, 43.770054]}, "properties": {"stop_name": "Finch Ave West at Wilmington Ave", "wheelchair_boarding": "1"}}, {"type": "Feature", "geometry": {"type": "Point", "coordinates": [-79.400131, 43.63647]}, "properties": {"stop_name": "Fleet St at Bathurst St", "wheelchair_boarding": "1"}}, {"type": "Feature", "geometry": {"type": "Point", "coordinates": [-79.358694, 43.809241]}, "properties": {"stop_name": "Freshmeadow Dr at Don Mills Rd", "wheelchair_boarding": "1"}}, {"type": "Feature", "geometry": {"type": "Point", "coordinates": [-79.358829, 43.809161]}, "properties": {"stop_name": "Freshmeadow Dr at Don Mills Rd", "wheelchair_boarding": "1"}}, {"type": "Feature", "geometry": {"type": "Point", "coordinates": [-79.363737, 43.651396]}, "properties": {"stop_name": "Front St East at Berkeley St", "wheelchair_boarding": "1"}}, {"type": "Feature", "geometry": {"type": "Point", "coordinates": [-79.168334, 43.784126]}, "properties": {"stop_name": "Lawson Rd at Kingston Rd - Highway 2A Overpass", "wheelchair_boarding": "1"}}, {"type": "Feature", "geometry": {"type": "Point", "coordinates": [-79.168491, 43.784451]}, "properties": {"stop_name": "Highland Creek Overpass at Kingston Rd", "wheelchair_boarding": "1"}}, {"type": "Feature", "geometry": {"type": "Point", "coordinates": [-79.168278, 43.784282]}, "properties": {"stop_name": "Highland Creek Overpass at Kingston Rd", "wheelchair_boarding": "1"}}, {"type": "Feature", "geometry": {"type": "Point", "coordinates": [-79.597785, 43.722448]}, "properties": {"stop_name": "Highway 27 at Queen's Plate Dr - Woodbine Centre", "wheelchair_boarding": "1"}}, {"type": "Feature", "geometry": {"type": "Point", "coordinates": [-79.608899, 43.731793]}, "properties": {"stop_name": "Humber College Blvd at Humberline Dr South Side", "wheelchair_boarding": "1"}}, {"type": "Feature", "geometry": {"type": "Point", "coordinates": [-79.609689, 43.731956]}, "properties": {"stop_name": "Humberline Dr at Humber College Blvd West Side", "wheelchair_boarding": "1"}}, {"type": "Feature", "geometry": {"type": "Point", "coordinates": [-79.609562, 43.731861]}, "properties": {"stop_name": "Humberline Dr at Humber College Blvd", "wheelchair_boarding": "1"}}, {"type": "Feature", "geometry": {"type": "Point", "coordinates": [-79.523592, 43.64541]}, "properties": {"stop_name": "Islington Ave at Bloor St West North Side", "wheelchair_boarding": "1"}}, {"type": "Feature", "geometry": {"type": "Point", "coordinates": [-79.523193, 43.644497]}, "properties": {"stop_name": "Islington Ave at Bloor St West", "wheelchair_boarding": "1"}}, {"type": "Feature", "geometry": {"type": "Point", "coordinates": [-79.568376, 43.745841]}, "properties": {"stop_name": "Islington Ave at Finch Ave West", "wheelchair_boarding": "1"}}, {"type": "Feature", "geometry": {"type": "Point", "coordinates": [-79.574525, 43.763708]}, "properties": {"stop_name": "Islington Ave at Steeles Ave West", "wheelchair_boarding": "1"}}, {"type": "Feature", "geometry": {"type": "Point", "coordinates": [-79.487997, 43.658168]}, "properties": {"stop_name": "Jane St at Annette St", "wheelchair_boarding": "1"}}, {"type": "Feature", "geometry": {"type": "Point", "coordinates": [-79.502577, 43.697819]}, "properties": {"stop_name": "Jane St at Trethewey Dr", "wheelchair_boarding": "1"}}, {"type": "Feature", "geometry": {"type": "Point", "coordinates": [-79.517646, 43.756377]}, "properties": {"stop_name": "Jane St at Finch Ave West South Side", "wheelchair_boarding": "1"}}, {"type": "Feature", "geometry": {"type": "Point", "coordinates": [-79.509439, 43.724803]}, "properties": {"stop_name": "Jane St at Heathrow Dr", "wheelchair_boarding": "1"}}, {"type": "Feature", "geometry": {"type": "Point", "coordinates": [-79.521145, 43.772801]}, "properties": {"stop_name": "Jane St at Hullmar Dr", "wheelchair_boarding": "1"}}, {"type": "Feature", "geometry": {"type": "Point", "coordinates": [-79.521585, 43.773357]}, "properties": {"stop_name": "Jane St at Hullmar Dr", "wheelchair_boarding": "1"}}, {"type": "Feature", "geometry": {"type": "Point", "coordinates": [-79.497522, 43.68093]}, "properties": {"stop_name": "Jane St at Lambton Ave", "wheelchair_boarding": "1"}}, {"type": "Feature", "geometry": {"type": "Point", "coordinates": [-79.493013, 43.669731]}, "properties": {"stop_name": "Jane St at Pritchard Ave", "wheelchair_boarding": "1"}}, {"type": "Feature", "geometry": {"type": "Point", "coordinates": [-79.503411, 43.701092]}, "properties": {"stop_name": "Jane St at Wright Ave", "wheelchair_boarding": "1"}}, {"type": "Feature", "geometry": {"type": "Point", "coordinates": [-79.521497, 43.775288]}, "properties": {"stop_name": "Jane St at Steeles Ave West", "wheelchair_boarding": "1"}}, {"type": "Feature", "geometry": {"type": "Point", "coordinates": [-79.594657, 43.73531]}, "properties": {"stop_name": "John Garland Blvd at Finch Ave West South Side", "wheelchair_boarding": "1"}}, {"type": "Feature", "geometry": {"type": "Point", "coordinates": [-79.594631, 43.735579]}, "properties": {"stop_name": "John Garland Blvd at Finch Ave West", "wheelchair_boarding": "1"}}, {"type": "Feature", "geometry": {"type": "Point", "coordinates": [-79.490996, 43.764093]}, "properties": {"stop_name": "Keele St at Finch Ave West North Side - Finch West Station", "wheelchair_boarding": "1"}}, {"type": "Feature", "geometry": {"type": "Point", "coordinates": [-79.491402, 43.763952]}, "properties": {"stop_name": "Keele St at Finch Ave West - Finch West Station", "wheelchair_boarding": "1"}}, {"type": "Feature", "geometry": {"type": "Point", "coordinates": [-79.382775, 43.678317]}, "properties": {"stop_name": "Crescent Rd at South Dr (West)", "wheelchair_boarding": "1"}}, {"type": "Feature", "geometry": {"type": "Point", "coordinates": [-79.355383, 43.664667]}, "properties": {"stop_name": "Gerrard St East at Blackburn St", "wheelchair_boarding": "2"}}, {"type": "Feature", "geometry": {"type": "Point", "coordinates": [-79.437588, 43.642783]}, "properties": {"stop_name": "Lansdowne Ave at Seaforth Ave", "wheelchair_boarding": "1"}}, {"type": "Feature", "geometry": {"type": "Point", "coordinates": [-79.501269, 43.669109]}, "properties": {"stop_name": "Scarlett Rd at Foxwell St", "wheelchair_boarding": "2"}}, {"type": "Feature", "geometry": {"type": "Point", "coordinates": [-79.562929, 43.674662]}, "properties": {"stop_name": "Eglinton Ave West at Martin Grove Rd", "wheelchair_boarding": "1"}}, {"type": "Feature", "geometry": {"type": "Point", "coordinates": [-79.446059, 43.723727]}, "properties": {"stop_name": "Ranee Ave at Varna Dr - Yorkdale Station", "wheelchair_boarding": "1"}}, {"type": "Feature", "geometry": {"type": "Point", "coordinates": [-79.598885, 43.686752]}, "properties": {"stop_name": "950 Dixon Rd", "wheelchair_boarding": "1"}}, {"type": "Feature", "geometry": {"type": "Point", "coordinates": [-79.263574, 43.801324]}, "properties": {"stop_name": "McCowan Rd at Kenhatch Blvd", "wheelchair_boarding": "1"}}, {"type": "Feature", "geometry": {"type": "Point", "coordinates": [-79.570302, 43.633599]}, "properties": {"stop_name": "Bloor St West at Markland Dr (East) East Side", "wheelchair_boarding": "1"}}, {"type": "Feature", "geometry": {"type": "Point", "coordinates": [-79.563789, 43.704617]}, "properties": {"stop_name": "Belfield Rd at Kipling Ave - Etobicoke North GO Station", "wheelchair_boarding": "1"}}, {"type": "Feature", "geometry": {"type": "Point", "coordinates": [-79.550934, 43.665826]}, "properties": {"stop_name": "Lloyd Manor Rd at Firwood Cres North Side", "wheelchair_boarding": "2"}}, {"type": "Feature", "geometry": {"type": "Point", "coordinates": [-79.275113, 43.832437]}, "properties": {"stop_name": "McCowan Rd Loop at Steeles Ave East", "wheelchair_boarding": "2"}}, {"type": "Feature", "geometry": {"type": "Point", "coordinates": [-79.261236, 43.825459]}, "properties": {"stop_name": "Maybrook Dr at Newmill Gate", "wheelchair_boarding": "1"}}, {"type": "Feature", "geometry": {"type": "Point", "coordinates": [-79.393288, 43.649465]}, "properties": {"stop_name": "Queen St West at Soho St", "wheelchair_boarding": "1"}}, {"type": "Feature", "geometry": {"type": "Point", "coordinates": [-79.360551, 43.811361]}, "properties": {"stop_name": "Steeles Ave East at Don Mills Rd", "wheelchair_boarding": "1"}}, {"type": "Feature", "geometry": {"type": "Point", "coordinates": [-79.297157, 43.825426]}, "properties": {"stop_name": "Midland Ave at Steeles Ave East South Side", "wheelchair_boarding": "1"}}, {"type": "Feature", "geometry": {"type": "Point", "coordinates": [-79.227864, 43.728894]}, "properties": {"stop_name": "Kingston Rd at McNab Blvd East Side", "wheelchair_boarding": "1"}}, {"type": "Feature", "geometry": {"type": "Point", "coordinates": [-79.529279, 43.627059]}, "properties": {"stop_name": "Kipling Ave at Jutland Rd", "wheelchair_boarding": "2"}}, {"type": "Feature", "geometry": {"type": "Point", "coordinates": [-79.524547, 43.737561]}, "properties": {"stop_name": "Oakdale Rd at Sheppard Ave West North Side", "wheelchair_boarding": "1"}}, {"type": "Feature", "geometry": {"type": "Point", "coordinates": [-79.456095, 43.644754]}, "properties": {"stop_name": "Parkside Dr at High Park Blvd", "wheelchair_boarding": "2"}}, {"type": "Feature", "geometry": {"type": "Point", "coordinates": [-79.190293, 43.749505]}, "properties": {"stop_name": "Guildwood Pkwy at Navarre Cres", "wheelchair_boarding": "1"}}, {"type": "Feature", "geometry": {"type": "Point", "coordinates": [-79.284552, 43.799936]}, "properties": {"stop_name": "Midland Ave at Boarhill Dr", "wheelchair_boarding": "1"}}, {"type": "Feature", "geometry": {"type": "Point", "coordinates": [-79.325724, 43.724363]}, "properties": {"stop_name": "Eglinton Ave East at Wynford Dr West Side", "wheelchair_boarding": "1"}}, {"type": "Feature", "geometry": {"type": "Point", "coordinates": [-79.405846, 43.698727]}, "properties": {"stop_name": "Chaplin Cres at Avenue Rd", "wheelchair_boarding": "1"}}, {"type": "Feature", "geometry": {"type": "Point", "coordinates": [-79.222594, 43.778605]}, "properties": {"stop_name": "Ellesmere Rd at Helicon Gate West Side", "wheelchair_boarding": "1"}}, {"type": "Feature", "geometry": {"type": "Point", "coordinates": [-79.446835, 43.708267]}, "properties": {"stop_name": "Glencairn Ave at Danesbury Ave", "wheelchair_boarding": "1"}}, {"type": "Feature", "geometry": {"type": "Point", "coordinates": [-79.365268, 43.649601]}, "properties": {"stop_name": "The Esplanade at Princess St", "wheelchair_boarding": "1"}}, {"type": "Feature", "geometry": {"type": "Point", "coordinates": [-79.392008, 43.699192]}, "properties": {"stop_name": "Davisville Ave at Pailton Cres", "wheelchair_boarding": "2"}}, {"type": "Feature", "geometry": {"type": "Point", "coordinates": [-79.490919, 43.665416]}, "properties": {"stop_name": "Jane St at Dundas St West", "wheelchair_boarding": "1"}}, {"type": "Feature", "geometry": {"type": "Point", "coordinates": [-79.242397, 43.776198]}, "properties": {"stop_name": "1100 Bellamy Rd North", "wheelchair_boarding": "1"}}, {"type": "Feature", "geometry": {"type": "Point", "coordinates": [-79.372262, 43.66753]}, "properties": {"stop_name": "Wellesley St East at Ontario St", "wheelchair_boarding": "1"}}, {"type": "Feature", "geometry": {"type": "Point", "coordinates": [-79.383433, 43.700997]}, "properties": {"stop_name": "Davisville Ave at Belle Ayre Blvd", "wheelchair_boarding": "2"}}, {"type": "Feature", "geometry": {"type": "Point", "coordinates": [-79.312657, 43.685785]}, "properties": {"stop_name": "Danforth Ave at Woodbine Ave", "wheelchair_boarding": "1"}}, {"type": "Feature", "geometry": {"type": "Point", "coordinates": [-79.484457, 43.67061]}, "properties": {"stop_name": "Henrietta St at Runnymede Rd", "wheelchair_boarding": "1"}}, {"type": "Feature", "geometry": {"type": "Point", "coordinates": [-79.569349, 43.687672]}, "properties": {"stop_name": "Waterbury Dr at Martin Grove Rd", "wheelchair_boarding": "1"}}, {"type": "Feature", "geometry": {"type": "Point", "coordinates": [-79.318304, 43.704594]}, "properties": {"stop_name": "St Clair Ave East at Denvale Rd", "wheelchair_boarding": "1"}}, {"type": "Feature", "geometry": {"type": "Point", "coordinates": [-79.278727, 43.732744]}, "properties": {"stop_name": "Birchmount Rd at Ashtonbee Rd", "wheelchair_boarding": "1"}}, {"type": "Feature", "geometry": {"type": "Point", "coordinates": [-79.268991, 43.811497]}, "properties": {"stop_name": "McCowan Rd at Sandhurst Cir (North)", "wheelchair_boarding": "1"}}, {"type": "Feature", "geometry": {"type": "Point", "coordinates": [-79.275328, 43.691478]}, "properties": {"stop_name": "Clonmore Dr at Cornell Ave", "wheelchair_boarding": "1"}}, {"type": "Feature", "geometry": {"type": "Point", "coordinates": [-79.332569, 43.662783]}, "properties": {"stop_name": "Queen St East at Jones Ave", "wheelchair_boarding": "1"}}, {"type": "Feature", "geometry": {"type": "Point", "coordinates": [-79.326626, 43.656679]}, "properties": {"stop_name": "Leslie St at Commissioners St", "wheelchair_boarding": "1"}}, {"type": "Feature", "geometry": {"type": "Point", "coordinates": [-79.340644, 43.736053]}, "properties": {"stop_name": "16 The Donway East - Opposite Don Mills Collegiate", "wheelchair_boarding": "1"}}, {"type": "Feature", "geometry": {"type": "Point", "coordinates": [-79.308634, 43.738869]}, "properties": {"stop_name": "Victoria Park Ave at Sloane Ave", "wheelchair_boarding": "1"}}, {"type": "Feature", "geometry": {"type": "Point", "coordinates": [-79.596177, 43.746303]}, "properties": {"stop_name": "1915 Martin Grove Rd", "wheelchair_boarding": "1"}}, {"type": "Feature", "geometry": {"type": "Point", "coordinates": [-79.397763, 43.677274]}, "properties": {"stop_name": "Avenue Rd at Dupont St", "wheelchair_boarding": "1"}}, {"type": "Feature", "geometry": {"type": "Point", "coordinates": [-79.540842, 43.622732]}, "properties": {"stop_name": "Shorncliffe Ave at North Queen St", "wheelchair_boarding": "1"}}, {"type": "Feature", "geometry": {"type": "Point", "coordinates": [-79.466644, 43.657034]}, "properties": {"stop_name": "High Park Ave at Glenlake Ave", "wheelchair_boarding": "1"}}, {"type": "Feature", "geometry": {"type": "Point", "coordinates": [-79.540494, 43.689215]}, "properties": {"stop_name": "The Westway at Sun Row Dr East Side", "wheelchair_boarding": "1"}}, {"type": "Feature", "geometry": {"type": "Point", "coordinates": [-79.327577, 43.698228]}, "properties": {"stop_name": "O'Connor Dr at Ralston Ave West Side", "wheelchair_boarding": "1"}}, {"type": "Feature", "geometry": {"type": "Point", "coordinates": [-79.606418, 43.733802]}, "properties": {"stop_name": "Finch Ave West at Woodbine Downs Blvd", "wheelchair_boarding": "1"}}, {"type": "Feature", "geometry": {"type": "Point", "coordinates": [-79.465459, 43.691842]}, "properties": {"stop_name": "Eglinton Ave West at Blackthorn Ave", "wheelchair_boarding": "1"}}, {"type": "Feature", "geometry": {"type": "Point", "coordinates": [-79.380123, 43.654147]}, "properties": {"stop_name": "Yonge St at Shuter St", "wheelchair_boarding": "1"}}, {"type": "Feature", "geometry": {"type": "Point", "coordinates": [-79.43441, 43.657218]}, "properties": {"stop_name": "Dufferin St at Dufferin Park Ave", "wheelchair_boarding": "1"}}, {"type": "Feature", "geometry": {"type": "Point", "coordinates": [-79.489263, 43.757271]}, "properties": {"stop_name": "Keele St at Broadoaks Dr", "wheelchair_boarding": "1"}}, {"type": "Feature", "geometry": {"type": "Point", "coordinates": [-79.45827, 43.753614]}, "properties": {"stop_name": "Wilson Heights Blvd at Codsell Ave", "wheelchair_boarding": "1"}}, {"type": "Feature", "geometry": {"type": "Point", "coordinates": [-79.38676, 43.700417]}, "properties": {"stop_name": "Davisville Ave at Mt Pleasant Rd", "wheelchair_boarding": "1"}}, {"type": "Feature", "geometry": {"type": "Point", "coordinates": [-79.262392, 43.788997]}, "properties": {"stop_name": "Sheppard Ave East at Brownspring Rd", "wheelchair_boarding": "1"}}, {"type": "Feature", "geometry": {"type": "Point", "coordinates": [-79.394781, 43.720261]}, "properties": {"stop_name": "Mt Pleasant Rd at Glengowan Rd", "wheelchair_boarding": "1"}}, {"type": "Feature", "geometry": {"type": "Point", "coordinates": [-79.259554, 43.822016]}, "properties": {"stop_name": "Maybrook Dr at McNicoll Ave North Side", "wheelchair_boarding": "1"}}, {"type": "Feature", "geometry": {"type": "Point", "coordinates": [-79.581771, 43.665276]}, "properties": {"stop_name": "Gentian Dr at Wellesworth Dr", "wheelchair_boarding": "1"}}, {"type": "Feature", "geometry": {"type": "Point", "coordinates": [-79.28759, 43.781686]}, "properties": {"stop_name": "Kennedy Rd at Jade St", "wheelchair_boarding": "1"}}, {"type": "Feature", "geometry": {"type": "Point", "coordinates": [-79.432093, 43.776224]}, "properties": {"stop_name": "Finch Ave West at Grantbrook St West Side", "wheelchair_boarding": "1"}}, {"type": "Feature", "geometry": {"type": "Point", "coordinates": [-79.271211, 43.793232]}, "properties": {"stop_name": "Brimley Rd at Dennett Dr", "wheelchair_boarding": "1"}}, {"type": "Feature", "geometry": {"type": "Point", "coordinates": [-79.316789, 43.666193]}, "properties": {"stop_name": "Queen St East at Emdaabiimok Ave", "wheelchair_boarding": "1"}}, {"type": "Feature", "geometry": {"type": "Point", "coordinates": [-79.233091, 43.819525]}, "properties": {"stop_name": "Finchdene Sq at Torham Pl", "wheelchair_boarding": "1"}}, {"type": "Feature", "geometry": {"type": "Point", "coordinates": [-79.46362, 43.663671]}, "properties": {"stop_name": "Annette St at Keele St", "wheelchair_boarding": "1"}}, {"type": "Feature", "geometry": {"type": "Point", "coordinates": [-79.508634, 43.708701]}, "properties": {"stop_name": "Uphill Ave at Church St", "wheelchair_boarding": "2"}}, {"type": "Feature", "geometry": {"type": "Point", "coordinates": [-79.450496, 43.69558]}, "properties": {"stop_name": "Eglinton Ave West at Dufferin St", "wheelchair_boarding": "1"}}, {"type": "Feature", "geometry": {"type": "Point", "coordinates": [-79.272214, 43.742208]}, "properties": {"stop_name": "Kennedy Rd at Ranstone Gardens", "wheelchair_boarding": "2"}}, {"type": "Feature", "geometry": {"type": "Point", "coordinates": [-79.258513, 43.70938]}, "properties": {"stop_name": "Kennedy Rd at Park St", "wheelchair_boarding": "1"}}, {"type": "Feature", "geometry": {"type": "Point", "coordinates": [-79.516246, 43.626838]}, "properties": {"stop_name": "Islington Ave at Nordin Ave", "wheelchair_boarding": "1"}}, {"type": "Feature", "geometry": {"type": "Point", "coordinates": [-79.218453, 43.799867]}, "properties": {"stop_name": "Neilson Rd at Opp Walkway to Blackwater Cres & Kessack Crt", "wheelchair_boarding": "1"}}, {"type": "Feature", "geometry": {"type": "Point", "coordinates": [-79.544419, 43.631979]}, "properties": {"stop_name": "Shorncliffe Rd at Dundas St West", "wheelchair_boarding": "1"}}, {"type": "Feature", "geometry": {"type": "Point", "coordinates": [-79.310674, 43.728017]}, "properties": {"stop_name": "Sloane Ave at Trophy Dr", "wheelchair_boarding": "1"}}, {"type": "Feature", "geometry": {"type": "Point", "coordinates": [-79.512964, 43.739571]}, "properties": {"stop_name": "Sheppard Ave West at Jane St", "wheelchair_boarding": "1"}}, {"type": "Feature", "geometry": {"type": "Point", "coordinates": [-79.226653, 43.824774]}, "properties": {"stop_name": "Nightstar Rd at Pogonia St", "wheelchair_boarding": "1"}}, {"type": "Feature", "geometry": {"type": "Point", "coordinates": [-79.198796, 43.80012]}, "properties": {"stop_name": "Morningside Ave at Milner Ave", "wheelchair_boarding": "1"}}, {"type": "Feature", "geometry": {"type": "Point", "coordinates": [-79.545978, 43.697104]}, "properties": {"stop_name": "Dixon Rd at Islington Ave East Side", "wheelchair_boarding": "1"}}, {"type": "Feature", "geometry": {"type": "Point", "coordinates": [-79.326827, 43.667801]}, "properties": {"stop_name": "Greenwood Ave at Dundas St East", "wheelchair_boarding": "1"}}, {"type": "Feature", "geometry": {"type": "Point", "coordinates": [-79.294644, 43.679631]}, "properties": {"stop_name": "Kingston Rd at Glen Manor Dr", "wheelchair_boarding": "1"}}, {"type": "Feature", "geometry": {"type": "Point", "coordinates": [-79.441114, 43.672861]}, "properties": {"stop_name": "Davenport Rd at Dufferin St", "wheelchair_boarding": "1"}}, {"type": "Feature", "geometry": {"type": "Point", "coordinates": [-79.302731, 43.683463]}, "properties": {"stop_name": "Gerrard St East at Norwood Rd", "wheelchair_boarding": "2"}}, {"type": "Feature", "geometry": {"type": "Point", "coordinates": [-79.325258, 43.716356]}, "properties": {"stop_name": "Linkwood Lane at Windy Golfway (South)", "wheelchair_boarding": "2"}}, {"type": "Feature", "geometry": {"type": "Point", "coordinates": [-79.528912, 43.768505]}, "properties": {"stop_name": "Hullmar Dr at Bamford Cres", "wheelchair_boarding": "1"}}, {"type": "Feature", "geometry": {"type": "Point", "coordinates": [-79.298967, 43.8059]}, "properties": {"stop_name": "Kennedy Rd at Dancy Ave North Side", "wheelchair_boarding": "1"}}, {"type": "Feature", "geometry": {"type": "Point", "coordinates": [-79.349884, 43.787936]}, "properties": {"stop_name": "Van Horne Ave at Hobart Dr", "wheelchair_boarding": "1"}}, {"type": "Feature", "geometry": {"type": "Point", "coordinates": [-79.306245, 43.724829]}, "properties": {"stop_name": "Eglinton Ave East at Jonesville Cres East Side", "wheelchair_boarding": "1"}}, {"type": "Feature", "geometry": {"type": "Point", "coordinates": [-79.505694, 43.709495]}, "properties": {"stop_name": "Jane St at Church St", "wheelchair_boarding": "1"}}, {"type": "Feature", "geometry": {"type": "Point", "coordinates": [-79.241966, 43.720854]}, "properties": {"stop_name": "St Clair Ave East at Brimley Rd West Side", "wheelchair_boarding": "1"}}, {"type": "Feature", "geometry": {"type": "Point", "coordinates": [-79.384484, 43.690041]}, "properties": {"stop_name": "St Clair Ave East at Clifton Rd", "wheelchair_boarding": "1"}}, {"type": "Feature", "geometry": {"type": "Point", "coordinates": [-79.260259, 43.71665]}, "properties": {"stop_name": "St Clair Ave East at Danforth Rd", "wheelchair_boarding": "1"}}, {"type": "Feature", "geometry": {"type": "Point", "coordinates": [-79.273123, 43.713659]}, "properties": {"stop_name": "St Clair Ave East at Elfreda Blvd", "wheelchair_boarding": "2"}}, {"type": "Feature", "geometry": {"type": "Point", "coordinates": [-79.261557, 43.716364]}, "properties": {"stop_name": "St Clair Ave East at Kennedy Rd", "wheelchair_boarding": "2"}}, {"type": "Feature", "geometry": {"type": "Point", "coordinates": [-79.296441, 43.708726]}, "properties": {"stop_name": "St Clair Ave East at Victoria Park Ave", "wheelchair_boarding": "1"}}, {"type": "Feature", "geometry": {"type": "Point", "coordinates": [-79.454079, 43.675379]}, "properties": {"stop_name": "St Clair Ave West at Caledonia Rd East Side", "wheelchair_boarding": "1"}}, {"type": "Feature", "geometry": {"type": "Point", "coordinates": [-79.454364, 43.675536]}, "properties": {"stop_name": "St Clair Ave West at Caledonia Rd", "wheelchair_boarding": "1"}}, {"type": "Feature", "geometry": {"type": "Point", "coordinates": [-79.471239, 43.671612]}, "properties": {"stop_name": "St Clair Ave West at Old Stock Yards Rd", "wheelchair_boarding": "1"}}, {"type": "Feature", "geometry": {"type": "Point", "coordinates": [-79.483773, 43.668843]}, "properties": {"stop_name": "St Clair Ave West at Runnymede Rd", "wheelchair_boarding": "1"}}, {"type": "Feature", "geometry": {"type": "Point", "coordinates": [-79.327989, 43.719618]}, "properties": {"stop_name": "St Dennis Dr at Linkwood Lane", "wheelchair_boarding": "1"}}, {"type": "Feature", "geometry": {"type": "Point", "coordinates": [-79.533957, 43.726797]}, "properties": {"stop_name": "St Basil The Great College School", "wheelchair_boarding": "1"}}, {"type": "Feature", "geometry": {"type": "Point", "coordinates": [-79.31785, 43.821303]}, "properties": {"stop_name": "Steeles Ave East at Birchmount Rd West Side", "wheelchair_boarding": "1"}}, {"type": "Feature", "geometry": {"type": "Point", "coordinates": [-79.317134, 43.821204]}, "properties": {"stop_name": "Steeles Ave East at Birchmount Rd", "wheelchair_boarding": "1"}}, {"type": "Feature", "geometry": {"type": "Point", "coordinates": [-79.416983, 43.798816]}, "properties": {"stop_name": "Steeles Ave East at Dudley Ave", "wheelchair_boarding": "1"}}, {"type": "Feature", "geometry": {"type": "Point", "coordinates": [-79.268102, 43.832511]}, "properties": {"stop_name": "Steeles Ave East at Middlefield Rd", "wheelchair_boarding": "1"}}, {"type": "Feature", "geometry": {"type": "Point", "coordinates": [-79.324739, 43.819426]}, "properties": {"stop_name": "Steeles Ave East at Warden Ave", "wheelchair_boarding": "1"}}, {"type": "Feature", "geometry": {"type": "Point", "coordinates": [-79.478067, 43.785538]}, "properties": {"stop_name": "1750 Steeles Ave West", "wheelchair_boarding": "1"}}, {"type": "Feature", "geometry": {"type": "Point", "coordinates": [-79.444561, 43.792559]}, "properties": {"stop_name": "Steeles Ave West at Bathurst St East Side", "wheelchair_boarding": "1"}}, {"type": "Feature", "geometry": {"type": "Point", "coordinates": [-79.576339, 43.764147]}, "properties": {"stop_name": "Steeles Ave West at Islington Ave Loop", "wheelchair_boarding": "1"}}, {"type": "Feature", "geometry": {"type": "Point", "coordinates": [-79.52209, 43.775231]}, "properties": {"stop_name": "Steeles Ave West at Jane St", "wheelchair_boarding": "1"}}, {"type": "Feature", "geometry": {"type": "Point", "coordinates": [-79.493751, 43.781584]}, "properties": {"stop_name": "Steeles Ave West at Keele St East Side", "wheelchair_boarding": "1"}}, {"type": "Feature", "geometry": {"type": "Point", "coordinates": [-79.604437, 43.757726]}, "properties": {"stop_name": "Steeles Ave West at Martin Grove Rd West Side", "wheelchair_boarding": "1"}}, {"type": "Feature", "geometry": {"type": "Point", "coordinates": [-79.603509, 43.757668]}, "properties": {"stop_name": "Steeles Ave West at Martin Grove Rd", "wheelchair_boarding": "1"}}, {"type": "Feature", "geometry": {"type": "Point", "coordinates": [-79.441127, 43.793281]}, "properties": {"stop_name": "Steeles Ave West at Village Gate", "wheelchair_boarding": "1"}}, {"type": "Feature", "geometry": {"type": "Point", "coordinates": [-79.546149, 43.770521]}, "properties": {"stop_name": "Steeles Ave West at Weston Rd", "wheelchair_boarding": "1"}}, {"type": "Feature", "geometry": {"type": "Point", "coordinates": [-79.484358, 43.630844]}, "properties": {"stop_name": "Stephen Dr at The Queensway North Side", "wheelchair_boarding": "2"}}, {"type": "Feature", "geometry": {"type": "Point", "coordinates": [-79.409631, 43.636606]}, "properties": {"stop_name": "Strachan Ave at Fleet St North Side", "wheelchair_boarding": "1"}}, {"type": "Feature", "geometry": {"type": "Point", "coordinates": [-79.409869, 43.636507]}, "properties": {"stop_name": "Strachan Ave at Fleet St", "wheelchair_boarding": "1"}}, {"type": "Feature", "geometry": {"type": "Point", "coordinates": [-79.376201, 43.722578]}, "properties": {"stop_name": "Raab Blvd at Hospital Rd West Side - K & L Wings", "wheelchair_boarding": "1"}}, {"type": "Feature", "geometry": {"type": "Point", "coordinates": [-79.375956, 43.72264]}, "properties": {"stop_name": "Raab Blvd at Hospital Rd West Side - K & L Wings", "wheelchair_boarding": "1"}}, {"type": "Feature", "geometry": {"type": "Point", "coordinates": [-79.377773, 43.721379]}, "properties": {"stop_name": "Wellness Way at Hospital Rd - Odette Cancer Centre", "wheelchair_boarding": "1"}}, {"type": "Feature", "geometry": {"type": "Point", "coordinates": [-79.377723, 43.721476]}, "properties": {"stop_name": "Wellness Way at Hospital Rd - Odette Cancer Centre", "wheelchair_boarding": "1"}}, {"type": "Feature", "geometry": {"type": "Point", "coordinates": [-79.376853, 43.72178]}, "properties": {"stop_name": "Hospital Rd at Wellness Way East Side - Sunnybrook Main Entrance", "wheelchair_boarding": "1"}}, {"type": "Feature", "geometry": {"type": "Point", "coordinates": [-79.376728, 43.72182]}, "properties": {"stop_name": "Hospital Rd at Wellness Way East Side - Sunnybrook Main Entrance", "wheelchair_boarding": "1"}}, {"type": "Feature", "geometry": {"type": "Point", "coordinates": [-79.237169, 43.814645]}, "properties": {"stop_name": "Tapscott Rd at Finch Ave East North Side", "wheelchair_boarding": "1"}}, {"type": "Feature", "geometry": {"type": "Point", "coordinates": [-79.45215, 43.734708]}, "properties": {"stop_name": "Transit Rd at Wilson Ave North Side", "wheelchair_boarding": "1"}}, {"type": "Feature", "geometry": {"type": "Point", "coordinates": [-79.452674, 43.734385]}, "properties": {"stop_name": "Transit Rd at Wilson Ave", "wheelchair_boarding": "2"}}, {"type": "Feature", "geometry": {"type": "Point", "coordinates": [-79.483884, 43.75434]}, "properties": {"stop_name": "Tuscan Gate at St Regis Cres (South)", "wheelchair_boarding": "1"}}, {"type": "Feature", "geometry": {"type": "Point", "coordinates": [-79.421833, 43.685654]}, "properties": {"stop_name": "Vaughan Rd at Maplewood Ave", "wheelchair_boarding": "1"}}, {"type": "Feature", "geometry": {"type": "Point", "coordinates": [-79.303276, 43.726546]}, "properties": {"stop_name": "Victoria Park Ave at Craigton Dr", "wheelchair_boarding": "1"}}, {"type": "Feature", "geometry": {"type": "Point", "coordinates": [-79.309752, 43.741562]}, "properties": {"stop_name": "Victoria Park Ave at Lawrence Ave East South Side", "wheelchair_boarding": "1"}}, {"type": "Feature", "geometry": {"type": "Point", "coordinates": [-79.323069, 43.775785]}, "properties": {"stop_name": "Victoria Park Ave at Sheppard Ave East North Side", "wheelchair_boarding": "1"}}, {"type": "Feature", "geometry": {"type": "Point", "coordinates": [-79.322908, 43.774647]}, "properties": {"stop_name": "Victoria Park Ave at Sheppard Ave East South Side", "wheelchair_boarding": "1"}}, {"type": "Feature", "geometry": {"type": "Point", "coordinates": [-79.274634, 43.696469]}, "properties": {"stop_name": "Warden Ave at Danforth Rd South Side", "wheelchair_boarding": "1"}}, {"type": "Feature", "geometry": {"type": "Point", "coordinates": [-79.308122, 43.779426]}, "properties": {"stop_name": "Warden Ave at Sheppard Ave East North Side", "wheelchair_boarding": "1"}}, {"type": "Feature", "geometry": {"type": "Point", "coordinates": [-79.32448, 43.820301]}, "properties": {"stop_name": "Warden Ave at Steeles Ave East North Side", "wheelchair_boarding": "1"}}, {"type": "Feature", "geometry": {"type": "Point", "coordinates": [-79.324472, 43.818977]}, "properties": {"stop_name": "Warden Ave at Steeles Ave East South Side", "wheelchair_boarding": "1"}}, {"type": "Feature", "geometry": {"type": "Point", "coordinates": [-79.560579, 43.609464]}, "properties": {"stop_name": "The West Mall at Sherway Dr - Trillium Health Centre (South Stop)", "wheelchair_boarding": "1"}}, {"type": "Feature", "geometry": {"type": "Point", "coordinates": [-79.562334, 43.61175]}, "properties": {"stop_name": "The West Mall at The Queensway South Side", "wheelchair_boarding": "1"}}, {"type": "Feature", "geometry": {"type": "Point", "coordinates": [-79.4766, 43.681288]}, "properties": {"stop_name": "Weston Rd at Rogers Rd South Side", "wheelchair_boarding": "1"}}, {"type": "Feature", "geometry": {"type": "Point", "coordinates": [-79.539217, 43.738874]}, "properties": {"stop_name": "Weston Rd at Bradstock Rd", "wheelchair_boarding": "1"}}, {"type": "Feature", "geometry": {"type": "Point", "coordinates": [-79.489128, 43.686654]}, "properties": {"stop_name": "Weston Rd at Eglinton Ave West South Side", "wheelchair_boarding": "1"}}, {"type": "Feature", "geometry": {"type": "Point", "coordinates": [-79.542165, 43.75179]}, "properties": {"stop_name": "Weston Rd at Finch Ave West", "wheelchair_boarding": "2"}}, {"type": "Feature", "geometry": {"type": "Point", "coordinates": [-79.533625, 43.708152]}, "properties": {"stop_name": "Weston Rd at Oak St North Side", "wheelchair_boarding": "1"}}, {"type": "Feature", "geometry": {"type": "Point", "coordinates": [-79.477086, 43.682026]}, "properties": {"stop_name": "Weston Rd at Rogers Rd North Side", "wheelchair_boarding": "1"}}, {"type": "Feature", "geometry": {"type": "Point", "coordinates": [-79.546118, 43.769223]}, "properties": {"stop_name": "Weston Rd at Steeles Ave West", "wheelchair_boarding": "1"}}, {"type": "Feature", "geometry": {"type": "Point", "coordinates": [-79.330348, 43.654958]}, "properties": {"stop_name": "Lakeshore Garage Exit at Commissioners St", "wheelchair_boarding": "2"}}, {"type": "Feature", "geometry": {"type": "Point", "coordinates": [-79.452938, 43.733156]}, "properties": {"stop_name": "Wilson Ave at Billy Bishop Way", "wheelchair_boarding": "1"}}, {"type": "Feature", "geometry": {"type": "Point", "coordinates": [-79.481019, 43.726932]}, "properties": {"stop_name": "Wilson Ave at Keele St East Side", "wheelchair_boarding": "1"}}, {"type": "Feature", "geometry": {"type": "Point", "coordinates": [-79.481737, 43.726925]}, "properties": {"stop_name": "Wilson Ave at Keele St", "wheelchair_boarding": "1"}}, {"type": "Feature", "geometry": {"type": "Point", "coordinates": [-79.464577, 43.731006]}, "properties": {"stop_name": "Wilson Ave at Lady York Ave", "wheelchair_boarding": "1"}}, {"type": "Feature", "geometry": {"type": "Point", "coordinates": [-79.455114, 43.733006]}, "properties": {"stop_name": "Opposite 675 Wilson Ave", "wheelchair_boarding": "1"}}, {"type": "Feature", "geometry": {"type": "Point", "coordinates": [-79.453577, 43.733336]}, "properties": {"stop_name": "Wilson Ave at Transit Rd West Side", "wheelchair_boarding": "1"}}, {"type": "Feature", "geometry": {"type": "Point", "coordinates": [-79.603623, 43.716054]}, "properties": {"stop_name": "Woodbine Race Track Loop (Main Entrance)", "wheelchair_boarding": "1"}}, {"type": "Feature", "geometry": {"type": "Point", "coordinates": [-79.603632, 43.716178]}, "properties": {"stop_name": "Woodbine Racetrack Loop (Main Entrance)", "wheelchair_boarding": "1"}}, {"type": "Feature", "geometry": {"type": "Point", "coordinates": [-79.416819, 43.784107]}, "properties": {"stop_name": "5800 Yonge St", "wheelchair_boarding": "1"}}, {"type": "Feature", "geometry": {"type": "Point", "coordinates": [-79.377049, 43.647377]}, "properties": {"stop_name": "Yonge St at Front St East North Side", "wheelchair_boarding": "1"}}, {"type": "Feature", "geometry": {"type": "Point", "coordinates": [-79.376766, 43.646768]}, "properties": {"stop_name": "Yonge St at Front St East", "wheelchair_boarding": "2"}}, {"type": "Feature", "geometry": {"type": "Point", "coordinates": [-79.394726, 43.689912]}, "properties": {"stop_name": "Yonge St at Heath St East", "wheelchair_boarding": "1"}}, {"type": "Feature", "geometry": {"type": "Point", "coordinates": [-79.416193, 43.781711]}, "properties": {"stop_name": "Yonge St at Hendon Ave", "wheelchair_boarding": "1"}}, {"type": "Feature", "geometry": {"type": "Point", "coordinates": [-79.406769, 43.743514]}, "properties": {"stop_name": "Yonge St at Wilson Ave South Side", "wheelchair_boarding": "2"}}, {"type": "Feature", "geometry": {"type": "Point", "coordinates": [-79.406435, 43.743783]}, "properties": {"stop_name": "Yonge St at York Mills Rd", "wheelchair_boarding": "1"}}, {"type": "Feature", "geometry": {"type": "Point", "coordinates": [-79.352534, 43.754734]}, "properties": {"stop_name": "York Mills Rd at Lesmill Rd West Side", "wheelchair_boarding": "1"}}, {"type": "Feature", "geometry": {"type": "Point", "coordinates": [-79.331751, 43.759813]}, "properties": {"stop_name": "York Mills Rd at Sandover Dr (1222 York Mills)", "wheelchair_boarding": "1"}}, {"type": "Feature", "geometry": {"type": "Point", "coordinates": [-79.405826, 43.744162]}, "properties": {"stop_name": "York Mills Rd at Yonge St East Side", "wheelchair_boarding": "1"}}, {"type": "Feature", "geometry": {"type": "Point", "coordinates": [-79.405968, 43.744417]}, "properties": {"stop_name": "York Mills Rd at Yonge St", "wheelchair_boarding": "1"}}, {"type": "Feature", "geometry": {"type": "Point", "coordinates": [-79.401756, 43.744189]}, "properties": {"stop_name": "York Mills Rd at York Ridge Rd", "wheelchair_boarding": "1"}}, {"type": "Feature", "geometry": {"type": "Point", "coordinates": [-79.544571, 43.639615]}, "properties": {"stop_name": "Bloor St West at Wilmar Rd", "wheelchair_boarding": "2"}}, {"type": "Feature", "geometry": {"type": "Point", "coordinates": [-79.478134, 43.670097]}, "properties": {"stop_name": "St Clair Ave West at Cobalt Ave", "wheelchair_boarding": "1"}}, {"type": "Feature", "geometry": {"type": "Point", "coordinates": [-79.224634, 43.758172]}, "properties": {"stop_name": "Markham Rd at Greencrest Circt North Side", "wheelchair_boarding": "1"}}, {"type": "Feature", "geometry": {"type": "Point", "coordinates": [-79.499347, 43.666777]}, "properties": {"stop_name": "Scarlett Rd at Bernice Cres", "wheelchair_boarding": "1"}}, {"type": "Feature", "geometry": {"type": "Point", "coordinates": [-79.409206, 43.80052]}, "properties": {"stop_name": "Steeles Ave East at Opposite Walkway to Whitman St", "wheelchair_boarding": "1"}}, {"type": "Feature", "geometry": {"type": "Point", "coordinates": [-79.501308, 43.764335]}, "properties": {"stop_name": "Sentinel Rd at Murray Ross Pkwy South Side", "wheelchair_boarding": "1"}}, {"type": "Feature", "geometry": {"type": "Point", "coordinates": [-79.36392, 43.650874]}, "properties": {"stop_name": "Berkeley St at Front St East South Side", "wheelchair_boarding": "1"}}, {"type": "Feature", "geometry": {"type": "Point", "coordinates": [-79.254164, 43.724981]}, "properties": {"stop_name": "Midland Ave at Danforth Rd", "wheelchair_boarding": "1"}}, {"type": "Feature", "geometry": {"type": "Point", "coordinates": [-79.511249, 43.6841]}, "properties": {"stop_name": "Eglinton Ave West at Scarlett Rd", "wheelchair_boarding": "1"}}, {"type": "Feature", "geometry": {"type": "Point", "coordinates": [-79.231021, 43.813546]}, "properties": {"stop_name": "Crow Trail at Baldoon Rd", "wheelchair_boarding": "1"}}, {"type": "Feature", "geometry": {"type": "Point", "coordinates": [-79.302328, 43.765659]}, "properties": {"stop_name": "Warden Ave at Lupin Dr", "wheelchair_boarding": "2"}}, {"type": "Feature", "geometry": {"type": "Point", "coordinates": [-79.341551, 43.707837]}, "properties": {"stop_name": "Overlea Blvd at William Morgan Dr", "wheelchair_boarding": "1"}}, {"type": "Feature", "geometry": {"type": "Point", "coordinates": [-79.333046, 43.663137]}, "properties": {"stop_name": "Jones Ave at Queen St East", "wheelchair_boarding": "1"}}, {"type": "Feature", "geometry": {"type": "Point", "coordinates": [-79.413525, 43.66468]}, "properties": {"stop_name": "Bloor St West at Palmerston Ave", "wheelchair_boarding": "1"}}, {"type": "Feature", "geometry": {"type": "Point", "coordinates": [-79.490689, 43.724582]}, "properties": {"stop_name": "Wilson Ave at Julian Rd East Side - Humber River Hospital", "wheelchair_boarding": "1"}}, {"type": "Feature", "geometry": {"type": "Point", "coordinates": [-79.489614, 43.667688]}, "properties": {"stop_name": "St Clair Ave West at Mariposa Ave", "wheelchair_boarding": "1"}}, {"type": "Feature", "geometry": {"type": "Point", "coordinates": [-79.555194, 43.768372]}, "properties": {"stop_name": "Steeles Ave West at Scholes Rd/Barmac Dr", "wheelchair_boarding": "1"}}, {"type": "Feature", "geometry": {"type": "Point", "coordinates": [-79.360766, 43.753001]}, "properties": {"stop_name": "York Mills Rd at Leslie St West Side", "wheelchair_boarding": "1"}}, {"type": "Feature", "geometry": {"type": "Point", "coordinates": [-79.430997, 43.638134]}, "properties": {"stop_name": "King St West at Spencer Ave", "wheelchair_boarding": "2"}}, {"type": "Feature", "geometry": {"type": "Point", "coordinates": [-79.295687, 43.72129]}, "properties": {"stop_name": "Pharmacy Ave at Sundridge Dr North Side", "wheelchair_boarding": "1"}}, {"type": "Feature", "geometry": {"type": "Point", "coordinates": [-79.358159, 43.713117]}, "properties": {"stop_name": "Vanderhoof Ave at Brentcliffe Rd", "wheelchair_boarding": "1"}}, {"type": "Feature", "geometry": {"type": "Point", "coordinates": [-79.398105, 43.706334]}, "properties": {"stop_name": "Yonge St at Eglinton Ave East - Eglinton Station", "wheelchair_boarding": "1"}}, {"type": "Feature", "geometry": {"type": "Point", "coordinates": [-79.415549, 43.695334]}, "properties": {"stop_name": "Spadina Rd at Ardmore Rd", "wheelchair_boarding": "2"}}, {"type": "Feature", "geometry": {"type": "Point", "coordinates": [-79.533562, 43.603747]}, "properties": {"stop_name": "Thirtieth St at Horner Ave South Side", "wheelchair_boarding": "1"}}, {"type": "Feature", "geometry": {"type": "Point", "coordinates": [-79.382961, 43.806055]}, "properties": {"stop_name": "Steeles Ave East at Bestview Dr East Side", "wheelchair_boarding": "1"}}, {"type": "Feature", "geometry": {"type": "Point", "coordinates": [-79.405049, 43.643488]}, "properties": {"stop_name": "King St West at Tecumseth St", "wheelchair_boarding": "2"}}, {"type": "Feature", "geometry": {"type": "Point", "coordinates": [-79.453371, 43.707138]}, "properties": {"stop_name": "Dufferin St at Glencairn Ave", "wheelchair_boarding": "1"}}, {"type": "Feature", "geometry": {"type": "Point", "coordinates": [-79.370653, 43.672194]}, "properties": {"stop_name": "Bloor St East at Parliament St", "wheelchair_boarding": "2"}}, {"type": "Feature", "geometry": {"type": "Point", "coordinates": [-79.527232, 43.716636]}, "properties": {"stop_name": "Wilson Ave at Wendell Ave", "wheelchair_boarding": "2"}}, {"type": "Feature", "geometry": {"type": "Point", "coordinates": [-79.219824, 43.760842]}, "properties": {"stop_name": "Lawrence Ave East at Fortune Gate East Side", "wheelchair_boarding": "1"}}, {"type": "Feature", "geometry": {"type": "Point", "coordinates": [-79.444374, 43.716218]}, "properties": {"stop_name": "Lawrence West Station", "wheelchair_boarding": "1"}}, {"type": "Feature", "geometry": {"type": "Point", "coordinates": [-79.551874, 43.679027]}, "properties": {"stop_name": "Kipling Ave at Widdicombe Hill Blvd", "wheelchair_boarding": "1"}}, {"type": "Feature", "geometry": {"type": "Point", "coordinates": [-79.283192, 43.818488]}, "properties": {"stop_name": "Brimley Rd at Walkway to McCool Crt", "wheelchair_boarding": "1"}}, {"type": "Feature", "geometry": {"type": "Point", "coordinates": [-79.315075, 43.677874]}, "properties": {"stop_name": "Gerrard St East at Bowmore Rd", "wheelchair_boarding": "2"}}, {"type": "Feature", "geometry": {"type": "Point", "coordinates": [-79.326727, 43.690445]}, "properties": {"stop_name": "Mortimer Ave at Coxwell Ave - Michael Garron Hospital", "wheelchair_boarding": "1"}}, {"type": "Feature", "geometry": {"type": "Point", "coordinates": [-79.340081, 43.695546]}, "properties": {"stop_name": "O'Connor Dr at Don Mills Rd West Side", "wheelchair_boarding": "1"}}, {"type": "Feature", "geometry": {"type": "Point", "coordinates": [-79.353465, 43.761912]}, "properties": {"stop_name": "Duncan Mill Rd at Valleybrook Dr", "wheelchair_boarding": "1"}}, {"type": "Feature", "geometry": {"type": "Point", "coordinates": [-79.356821, 43.734608]}, "properties": {"stop_name": "Lawrence Ave East at Leslie St West Side", "wheelchair_boarding": "1"}}, {"type": "Feature", "geometry": {"type": "Point", "coordinates": [-79.407263, 43.743804]}, "properties": {"stop_name": "Wilson Ave at Yonge St", "wheelchair_boarding": "1"}}, {"type": "Feature", "geometry": {"type": "Point", "coordinates": [-79.337448, 43.668855]}, "properties": {"stop_name": "Gerrard St East at Marjory Ave", "wheelchair_boarding": "2"}}, {"type": "Feature", "geometry": {"type": "Point", "coordinates": [-79.446836, 43.736941]}, "properties": {"stop_name": "Faywood Blvd at Goodwill Ave", "wheelchair_boarding": "1"}}, {"type": "Feature", "geometry": {"type": "Point", "coordinates": [-79.491793, 43.765884]}, "properties": {"stop_name": "Keele St at Four Winds Dr", "wheelchair_boarding": "1"}}, {"type": "Feature", "geometry": {"type": "Point", "coordinates": [-79.526015, 43.682279]}, "properties": {"stop_name": "Eglinton Ave West at Royal York Rd East Side", "wheelchair_boarding": "1"}}, {"type": "Feature", "geometry": {"type": "Point", "coordinates": [-79.524999, 43.663562]}, "properties": {"stop_name": "Anglesey Blvd at Pinehurst Cres North Side", "wheelchair_boarding": "1"}}, {"type": "Feature", "geometry": {"type": "Point", "coordinates": [-79.421375, 43.671704]}, "properties": {"stop_name": "Dupont St at Christie St", "wheelchair_boarding": "1"}}, {"type": "Feature", "geometry": {"type": "Point", "coordinates": [-79.496344, 43.742758]}, "properties": {"stop_name": "Sheppard Ave West at Northwood Park", "wheelchair_boarding": "2"}}, {"type": "Feature", "geometry": {"type": "Point", "coordinates": [-79.401875, 43.663187]}, "properties": {"stop_name": "Harbord St at Spadina Ave", "wheelchair_boarding": "1"}}, {"type": "Feature", "geometry": {"type": "Point", "coordinates": [-79.264907, 43.732636]}, "properties": {"stop_name": "South Service Rd at Transway Cres", "wheelchair_boarding": "2"}}, {"type": "Feature", "geometry": {"type": "Point", "coordinates": [-79.448917, 43.646167]}, "properties": {"stop_name": "Roncesvalles Ave at Fermanagh Ave", "wheelchair_boarding": "2"}}, {"type": "Feature", "geometry": {"type": "Point", "coordinates": [-79.437838, 43.755487]}, "properties": {"stop_name": "Sheppard Ave West at Bathurst St East Side", "wheelchair_boarding": "1"}}, {"type": "Feature", "geometry": {"type": "Point", "coordinates": [-79.297118, 43.72414]}, "properties": {"stop_name": "Pharmacy Ave at Eglinton Sq - East Entrance", "wheelchair_boarding": "2"}}, {"type": "Feature", "geometry": {"type": "Point", "coordinates": [-79.418072, 43.786892]}, "properties": {"stop_name": "Drewry Ave at Yonge St", "wheelchair_boarding": "1"}}, {"type": "Feature", "geometry": {"type": "Point", "coordinates": [-79.588478, 43.693563]}, "properties": {"stop_name": "Attwell Dr at McLachlan Dr North Side", "wheelchair_boarding": "1"}}, {"type": "Feature", "geometry": {"type": "Point", "coordinates": [-79.248343, 43.763591]}, "properties": {"stop_name": "McCowan Rd at Meldazy Dr (North)", "wheelchair_boarding": "1"}}, {"type": "Feature", "geometry": {"type": "Point", "coordinates": [-79.342154, 43.888387]}, "properties": {"stop_name": "Warden Ave at Cachet Pkwy", "wheelchair_boarding": "2"}}, {"type": "Feature", "geometry": {"type": "Point", "coordinates": [-79.553251, 43.724516]}, "properties": {"stop_name": "Elmhurst Dr at Muncey Ave", "wheelchair_boarding": "1"}}, {"type": "Feature", "geometry": {"type": "Point", "coordinates": [-79.286721, 43.700332]}, "properties": {"stop_name": "Pharmacy Ave at Dolphin Dr North Side", "wheelchair_boarding": "1"}}, {"type": "Feature", "geometry": {"type": "Point", "coordinates": [-79.283931, 43.6809]}, "properties": {"stop_name": "Kingston Rd at Victoria Park Ave", "wheelchair_boarding": "1"}}, {"type": "Feature", "geometry": {"type": "Point", "coordinates": [-79.565235, 43.640811]}, "properties": {"stop_name": "361 The West Mall", "wheelchair_boarding": "1"}}, {"type": "Feature", "geometry": {"type": "Point", "coordinates": [-79.511128, 43.647184]}, "properties": {"stop_name": "Royal York Rd at Bloor St West", "wheelchair_boarding": "1"}}, {"type": "Feature", "geometry": {"type": "Point", "coordinates": [-79.146775, 43.799459]}, "properties": {"stop_name": "Sheppard Ave East at Kingston Rd North Side", "wheelchair_boarding": "1"}}, {"type": "Feature", "geometry": {"type": "Point", "coordinates": [-79.246078, 43.785255]}, "properties": {"stop_name": "125 Milner Ave", "wheelchair_boarding": "1"}}, {"type": "Feature", "geometry": {"type": "Point", "coordinates": [-79.443657, 43.708904]}, "properties": {"stop_name": "Marlee Ave at Glencairn Ave", "wheelchair_boarding": "1"}}, {"type": "Feature", "geometry": {"type": "Point", "coordinates": [-79.278162, 43.841646]}, "properties": {"stop_name": "McCowan Rd at Denison St", "wheelchair_boarding": "1"}}, {"type": "Feature", "geometry": {"type": "Point", "coordinates": [-79.346695, 43.769772]}, "properties": {"stop_name": "Don Mills Rd at Havenbrook Blvd", "wheelchair_boarding": "1"}}, {"type": "Feature", "geometry": {"type": "Point", "coordinates": [-79.336749, 43.867355]}, "properties": {"stop_name": "Warden Ave at Carlton Rd", "wheelchair_boarding": "1"}}, {"type": "Feature", "geometry": {"type": "Point", "coordinates": [-79.349856, 43.705197]}, "properties": {"stop_name": "Overlea Blvd at Thorncliffe Park Dr (West)", "wheelchair_boarding": "1"}}, {"type": "Feature", "geometry": {"type": "Point", "coordinates": [-79.400435, 43.657863]}, "properties": {"stop_name": "College St at Spadina Ave", "wheelchair_boarding": "2"}}, {"type": "Feature", "geometry": {"type": "Point", "coordinates": [-79.254808, 43.805348]}, "properties": {"stop_name": "Middlefield Rd at Walkway to Buckhurst Cres", "wheelchair_boarding": "1"}}, {"type": "Feature", "geometry": {"type": "Point", "coordinates": [-79.524922, 43.616013]}, "properties": {"stop_name": "Kipling Ave at Evans Ave", "wheelchair_boarding": "1"}}, {"type": "Feature", "geometry": {"type": "Point", "coordinates": [-79.168529, 43.804115]}, "properties": {"stop_name": "Meadowvale Rd at Generation Blvd", "wheelchair_boarding": "1"}}, {"type": "Feature", "geometry": {"type": "Point", "coordinates": [-79.37919, 43.661975]}, "properties": {"stop_name": "Carlton St at Church St", "wheelchair_boarding": "2"}}, {"type": "Feature", "geometry": {"type": "Point", "coordinates": [-79.24221, 43.793243]}, "properties": {"stop_name": "Sheppard Ave East at Scunthorpe Rd West Side", "wheelchair_boarding": "1"}}, {"type": "Feature", "geometry": {"type": "Point", "coordinates": [-79.438674, 43.755643]}, "properties": {"stop_name": "Bathurst St at Sheppard Ave West", "wheelchair_boarding": "1"}}, {"type": "Feature", "geometry": {"type": "Point", "coordinates": [-79.518618, 43.761793]}, "properties": {"stop_name": "Jane St at Stong Crt", "wheelchair_boarding": "1"}}, {"type": "Feature", "geometry": {"type": "Point", "coordinates": [-79.370502, 43.801224]}, "properties": {"stop_name": "Leslie St at McNicoll Ave", "wheelchair_boarding": "1"}}, {"type": "Feature", "geometry": {"type": "Point", "coordinates": [-79.544286, 43.691428]}, "properties": {"stop_name": "Islington Ave at Fletcher Place", "wheelchair_boarding": "2"}}, {"type": "Feature", "geometry": {"type": "Point", "coordinates": [-79.263934, 43.775221]}, "properties": {"stop_name": "Progress Ave at Brimley Rd West Side", "wheelchair_boarding": "1"}}, {"type": "Feature", "geometry": {"type": "Point", "coordinates": [-79.458107, 43.706214]}, "properties": {"stop_name": "Glencairn Ave at Haven Rd", "wheelchair_boarding": "2"}}, {"type": "Feature", "geometry": {"type": "Point", "coordinates": [-79.58042, 43.740301]}, "properties": {"stop_name": "Kipling Ave at Penlea Ave", "wheelchair_boarding": "1"}}, {"type": "Feature", "geometry": {"type": "Point", "coordinates": [-79.421902, 43.7397]}, "properties": {"stop_name": "Wilson Ave at Avenue Rd", "wheelchair_boarding": "1"}}, {"type": "Feature", "geometry": {"type": "Point", "coordinates": [-79.437792, 43.718066]}, "properties": {"stop_name": "Varna Dr at Lawrence Ave West North Side", "wheelchair_boarding": "1"}}, {"type": "Feature", "geometry": {"type": "Point", "coordinates": [-79.284309, 43.680713]}, "properties": {"stop_name": "Kingston Rd at Victoria Park Ave", "wheelchair_boarding": "2"}}, {"type": "Feature", "geometry": {"type": "Point", "coordinates": [-79.397767, 43.636048]}, "properties": {"stop_name": "Queens Quay West at Bathurst St East Side Billy Bishop Airport", "wheelchair_boarding": "1"}}, {"type": "Feature", "geometry": {"type": "Point", "coordinates": [-79.407221, 43.675002]}, "properties": {"stop_name": "Spadina Rd at Dupont St - Dupont Station", "wheelchair_boarding": "1"}}, {"type": "Feature", "geometry": {"type": "Point", "coordinates": [-79.447227, 43.73878]}, "properties": {"stop_name": "Faywood Blvd at Invermay Ave", "wheelchair_boarding": "1"}}, {"type": "Feature", "geometry": {"type": "Point", "coordinates": [-79.266568, 43.783587]}, "properties": {"stop_name": "Brimley Rd at Pitfield Rd", "wheelchair_boarding": "1"}}, {"type": "Feature", "geometry": {"type": "Point", "coordinates": [-79.58563, 43.699693]}, "properties": {"stop_name": "Belfield Rd at City View Dr", "wheelchair_boarding": "1"}}, {"type": "Feature", "geometry": {"type": "Point", "coordinates": [-79.361822, 43.702461]}, "properties": {"stop_name": "Millwood Rd at Southvale Dr", "wheelchair_boarding": "1"}}, {"type": "Feature", "geometry": {"type": "Point", "coordinates": [-79.601374, 43.699305]}, "properties": {"stop_name": "Carlingview Dr at Disco Rd South Side", "wheelchair_boarding": "1"}}, {"type": "Feature", "geometry": {"type": "Point", "coordinates": [-79.349132, 43.729763]}, "properties": {"stop_name": "Barber Greene Rd at Broadpath Rd West Side", "wheelchair_boarding": "1"}}, {"type": "Feature", "geometry": {"type": "Point", "coordinates": [-79.432423, 43.652635]}, "properties": {"stop_name": "College St at Dufferin St", "wheelchair_boarding": "2"}}, {"type": "Feature", "geometry": {"type": "Point", "coordinates": [-79.381269, 43.733948]}, "properties": {"stop_name": "2395 Bayview Ave - Bob Rumball Centre For The Deaf", "wheelchair_boarding": "2"}}, {"type": "Feature", "geometry": {"type": "Point", "coordinates": [-79.556739, 43.737811]}, "properties": {"stop_name": "Thistle Down Blvd at Bentwick Cres (East)", "wheelchair_boarding": "1"}}, {"type": "Feature", "geometry": {"type": "Point", "coordinates": [-79.347166, 43.678557]}, "properties": {"stop_name": "Danforth Ave at Carlaw Ave", "wheelchair_boarding": "1"}}, {"type": "Feature", "geometry": {"type": "Point", "coordinates": [-79.317913, 43.829894]}, "properties": {"stop_name": "Birchmount Rd at Ferguson Gate", "wheelchair_boarding": "1"}}, {"type": "Feature", "geometry": {"type": "Point", "coordinates": [-79.554263, 43.619294]}, "properties": {"stop_name": "North Queen St at Index Rd", "wheelchair_boarding": "1"}}, {"type": "Feature", "geometry": {"type": "Point", "coordinates": [-79.270315, 43.773435]}, "properties": {"stop_name": "Progress Ave at Cosentino Dr", "wheelchair_boarding": "1"}}, {"type": "Feature", "geometry": {"type": "Point", "coordinates": [-79.18794, 43.772819]}, "properties": {"stop_name": "Morningside Ave at Tefft Rd", "wheelchair_boarding": "1"}}, {"type": "Feature", "geometry": {"type": "Point", "coordinates": [-79.347637, 43.787625]}, "properties": {"stop_name": "Van Horne Ave at Houston Cres (West)", "wheelchair_boarding": "1"}}, {"type": "Feature", "geometry": {"type": "Point", "coordinates": [-79.537136, 43.675429]}, "properties": {"stop_name": "Islington Ave at Princess Margaret Blvd South Side", "wheelchair_boarding": "2"}}, {"type": "Feature", "geometry": {"type": "Point", "coordinates": [-79.33466, 43.710963]}, "properties": {"stop_name": "Don Mills Rd at Gateway Blvd (South) North Side", "wheelchair_boarding": "1"}}, {"type": "Feature", "geometry": {"type": "Point", "coordinates": [-79.431788, 43.776728]}, "properties": {"stop_name": "Grantbrook St at Finch Ave West North Side", "wheelchair_boarding": "1"}}, {"type": "Feature", "geometry": {"type": "Point", "coordinates": [-79.525938, 43.773259]}, "properties": {"stop_name": "Hullmar Dr at Peter Kaiser Gate", "wheelchair_boarding": "1"}}, {"type": "Feature", "geometry": {"type": "Point", "coordinates": [-79.481651, 43.622987]}, "properties": {"stop_name": "Park Lawn Rd at Lake Shore Blvd West", "wheelchair_boarding": "1"}}, {"type": "Feature", "geometry": {"type": "Point", "coordinates": [-79.442624, 43.658219]}, "properties": {"stop_name": "Lansdowne Ave at Bloor St West", "wheelchair_boarding": "1"}}, {"type": "Feature", "geometry": {"type": "Point", "coordinates": [-79.347777, 43.761806]}, "properties": {"stop_name": "Duncan Mill Rd at Don Mills Rd West Side", "wheelchair_boarding": "1"}}, {"type": "Feature", "geometry": {"type": "Point", "coordinates": [-79.551376, 43.630229]}, "properties": {"stop_name": "Dundas St West at East Mall Cres West Side", "wheelchair_boarding": "1"}}, {"type": "Feature", "geometry": {"type": "Point", "coordinates": [-79.291977, 43.712033]}, "properties": {"stop_name": "Pharmacy Ave at Stamford Sq", "wheelchair_boarding": "1"}}, {"type": "Feature", "geometry": {"type": "Point", "coordinates": [-79.52125, 43.705045]}, "properties": {"stop_name": "Church St at Rosemount Ave", "wheelchair_boarding": "2"}}, {"type": "Feature", "geometry": {"type": "Point", "coordinates": [-79.344719, 43.695797]}, "properties": {"stop_name": "Donlands Ave at Elmsdale Rd", "wheelchair_boarding": "1"}}, {"type": "Feature", "geometry": {"type": "Point", "coordinates": [-79.516776, 43.598061]}, "properties": {"stop_name": "Kipling Ave at Lake Shore Blvd West", "wheelchair_boarding": "1"}}, {"type": "Feature", "geometry": {"type": "Point", "coordinates": [-79.358, 43.661284]}, "properties": {"stop_name": "Dundas St East at River St", "wheelchair_boarding": "2"}}, {"type": "Feature", "geometry": {"type": "Point", "coordinates": [-79.283686, 43.797197]}, "properties": {"stop_name": "Midland Ave at Huntingwood Dr", "wheelchair_boarding": "1"}}, {"type": "Feature", "geometry": {"type": "Point", "coordinates": [-79.431565, 43.649587]}, "properties": {"stop_name": "Dundas St West at Dufferin St", "wheelchair_boarding": "2"}}, {"type": "Feature", "geometry": {"type": "Point", "coordinates": [-79.183093, 43.751101]}, "properties": {"stop_name": "Guildwood Pkwy at Scarcliff Gardens", "wheelchair_boarding": "2"}}, {"type": "Feature", "geometry": {"type": "Point", "coordinates": [-79.323201, 43.811524]}, "properties": {"stop_name": "Warden Ave at Bamburgh Cir (South)", "wheelchair_boarding": "1"}}, {"type": "Feature", "geometry": {"type": "Point", "coordinates": [-79.405879, 43.662347]}, "properties": {"stop_name": "Harbord St at Brunswick Ave", "wheelchair_boarding": "1"}}, {"type": "Feature", "geometry": {"type": "Point", "coordinates": [-79.404131, 43.647375]},